id,name,name_ascii,lat,lng,country,iso2,name_alt,capital,population
0,Tokyo,Tokyo,35.6839,139.7744,Japan,JP,Tōkyō,primary,39105000
1,Jakarta,Jakarta,-6.2146,106.8451,Indonesia,ID,Jakarta,primary,35362000
2,Delhi,Delhi,28.6667,77.2167,India,IN,Delhi,admin,31870000
3,Manila,Manila,14.6,120.9833,Philippines,PH,Manila,primary,23971000
4,São Paulo,Sao Paulo,-23.5504,-46.6339,Brazil,BR,São Paulo,admin,22495000
5,Seoul,Seoul,37.56,126.99,South Korea,KR,Seoul,primary,22394000
6,Mumbai,Mumbai,19.0758,72.8775,India,IN,Mahārāshtra,admin,22186000
7,Shanghai,Shanghai,31.1667,121.4667,China,CN,Shanghai,admin,22118000
8,Mexico City,Mexico City,19.4333,-99.1333,Mexico,MX,Ciudad de México,primary,21505000
9,Guangzhou,Guangzhou,23.1288,113.259,China,CN,Guangdong,admin,21489000
10,Cairo,Cairo,30.0444,31.2358,Egypt,EG,Al Qāhirah,primary,19787000
11,Beijing,Beijing,39.904,116.4075,China,CN,Beijing,primary,19437000
12,New York,New York,40.6943,-73.9249,United States,US,New York,,18713220
13,Kolkāta,Kolkata,22.5727,88.3639,India,IN,West Bengal,admin,18698000
14,Moscow,Moscow,55.7558,37.6178,Russia,RU,Moskva,primary,17693000
15,Bangkok,Bangkok,13.75,100.5167,Thailand,TH,Krung Thep Maha Nakhon,primary,17573000
16,Dhaka,Dhaka,23.7289,90.3944,Bangladesh,BD,Dhaka,primary,16839000
17,Buenos Aires,Buenos Aires,-34.5997,-58.3819,Argentina,AR,"Buenos Aires, Ciudad Autónoma de",primary,16216000
18,Ōsaka,Osaka,34.752,135.4582,Japan,JP,Ōsaka,admin,15490000
19,Lagos,Lagos,6.45,3.4,Nigeria,NG,Lagos,minor,15487000
20,Istanbul,Istanbul,41.01,28.9603,Turkey,TR,İstanbul,admin,15311000
21,Karachi,Karachi,24.86,67.01,Pakistan,PK,Sindh,admin,15292000
22,Kinshasa,Kinshasa,-4.3317,15.3139,Congo (Kinshasa),CD,Kinshasa,primary,15056000
23,Shenzhen,Shenzhen,22.535,114.054,China,CN,Guangdong,minor,14678000
24,Bangalore,Bangalore,12.9791,77.5913,India,IN,Karnātaka,admin,13999000
25,Ho Chi Minh City,Ho Chi Minh City,10.8167,106.6333,Vietnam,VN,Hồ Chí Minh,admin,13954000
26,Tehran,Tehran,35.7,51.4167,Iran,IR,Tehrān,primary,13819000
27,Los Angeles,Los Angeles,34.1139,-118.4068,United States,US,California,,12750807
28,Rio de Janeiro,Rio de Janeiro,-22.9083,-43.1964,Brazil,BR,Rio de Janeiro,admin,12486000
29,Chengdu,Chengdu,30.66,104.0633,China,CN,Sichuan,admin,11920000
30,Baoding,Baoding,38.8671,115.4845,China,CN,Hebei,,11860000
31,Chennai,Chennai,13.0825,80.275,India,IN,Tamil Nādu,admin,11564000
32,Lahore,Lahore,31.5497,74.3436,Pakistan,PK,Punjab,admin,11148000
33,London,London,51.5072,-0.1275,United Kingdom,GB,"London, City of",primary,11120000
34,Paris,Paris,48.8566,2.3522,France,FR,Île-de-France,primary,11027000
35,Tianjin,Tianjin,39.1467,117.2056,China,CN,Tianjin,admin,10932000
36,Linyi,Linyi,35.0606,118.3425,China,CN,Shandong,,10820000
37,Shijiazhuang,Shijiazhuang,38.0422,114.5086,China,CN,Hebei,admin,10784600
38,Zhengzhou,Zhengzhou,34.7492,113.6605,China,CN,Henan,admin,10136000
39,Nanyang,Nanyang,32.9987,112.5292,China,CN,Henan,,10013600
40,Hyderābād,Hyderabad,17.3617,78.4747,India,IN,Telangana,admin,9840000
41,Wuhan,Wuhan,30.5872,114.2881,China,CN,Hubei,admin,9729000
42,Handan,Handan,36.6116,114.4894,China,CN,Hebei,minor,9549700
43,Nagoya,Nagoya,35.1167,136.9333,Japan,JP,Aichi,admin,9522000
44,Weifang,Weifang,36.7167,119.1,China,CN,Shandong,,9373000
45,Lima,Lima,-12.06,-77.0375,Peru,PE,Lima,primary,8992000
46,Zhoukou,Zhoukou,33.625,114.6418,China,CN,Henan,minor,8953172
47,Luanda,Luanda,-8.8383,13.2344,Angola,AO,Luanda,primary,8883000
48,Ganzhou,Ganzhou,25.8292,114.9336,China,CN,Jiangxi,minor,8677600
49,Tongshan,Tongshan,34.261,117.1859,China,CN,Jiangsu,minor,8669000
50,Kuala Lumpur,Kuala Lumpur,3.1478,101.6953,Malaysia,MY,Kuala Lumpur,primary,8639000
51,Chicago,Chicago,41.8373,-87.6862,United States,US,Illinois,,8604203
52,Heze,Heze,35.2333,115.4333,China,CN,Shandong,minor,8287693
53,Chongqing,Chongqing,29.55,106.5069,China,CN,Chongqing,admin,8261000
54,Hanoi,Hanoi,21.0245,105.8412,Vietnam,VN,Hà Nội,primary,8246600
55,Fuyang,Fuyang,32.8986,115.8045,China,CN,Anhui,,8200264
56,Changsha,Changsha,28.1987,112.9709,China,CN,Hunan,admin,8154700
57,Dongguan,Dongguan,23.0475,113.7493,China,CN,Guangdong,minor,8142000
58,Jining,Jining,35.4,116.5667,China,CN,Shandong,,8081905
59,Jinan,Jinan,36.6667,116.9833,China,CN,Shandong,admin,7967400
60,Pune,Pune,18.5196,73.8553,India,IN,Mahārāshtra,,7948000
61,Foshan,Foshan,23.0292,113.1056,China,CN,Guangdong,minor,7905700
62,Bogotá,Bogota,4.6126,-74.0705,Colombia,CO,Bogotá,primary,7743955
63,Ahmedabad,Ahmedabad,23.03,72.58,India,IN,Gujarāt,minor,7717000
64,Nanjing,Nanjing,32.05,118.7667,China,CN,Jiangsu,admin,7729000
65,Changchun,Changchun,43.9,125.2,China,CN,Jilin,admin,7674439
66,Tangshan,Tangshan,39.6292,118.1742,China,CN,Hebei,,7577289
67,Cangzhou,Cangzhou,38.3037,116.8452,China,CN,Hebei,,7544300
68,Dar es Salaam,Dar es Salaam,-6.8,39.2833,Tanzania,TZ,Dar es Salaam,primary,7461000
69,Hefei,Hefei,31.8639,117.2808,China,CN,Anhui,admin,7457027
70,Hong Kong,Hong Kong,22.3069,114.1831,Hong Kong,HK,,primary,7398000
71,Shaoyang,Shaoyang,27.2418,111.4725,China,CN,Hunan,,7370500
72,Zhanjiang,Zhanjiang,21.1967,110.4031,China,CN,Guangdong,minor,7332000
73,Shangqiu,Shangqiu,34.4259,115.6467,China,CN,Henan,,7325300
74,Nantong,Nantong,31.9829,120.8873,China,CN,Jiangsu,minor,7283622
75,Yancheng,Yancheng,33.3936,120.1339,China,CN,Jiangsu,minor,7260240
76,Nanning,Nanning,22.8192,108.315,China,CN,Guangxi,admin,7254100
77,Hengyang,Hengyang,26.8968,112.5857,China,CN,Hunan,,7243400
78,Zhumadian,Zhumadian,32.9773,114.0253,China,CN,Henan,,7231234
79,Shenyang,Shenyang,41.8039,123.4258,China,CN,Liaoning,admin,7208000
80,Xingtai,Xingtai,37.0659,114.4753,China,CN,Hebei,,7104103
81,Xi’an,Xi'an,34.2667,108.9,China,CN,Shaanxi,admin,7090000
82,Santiago,Santiago,-33.45,-70.6667,Chile,CL,Región Metropolitana,primary,7026000
83,Yantai,Yantai,37.3997,121.2664,China,CN,Shandong,,6968202
84,Riyadh,Riyadh,24.65,46.71,Saudi Arabia,SA,Ar Riyāḑ,primary,6889000
85,Luoyang,Luoyang,34.6587,112.4245,China,CN,Henan,,6888500
86,Kunming,Kunming,25.0433,102.7061,China,CN,Yunnan,admin,6850000
87,Shangrao,Shangrao,28.4419,117.9633,China,CN,Jiangxi,minor,6810700
88,Hangzhou,Hangzhou,30.25,120.1675,China,CN,Zhejiang,admin,6713000
89,Bijie,Bijie,27.3019,105.2863,China,CN,Guizhou,,6686100
90,Quanzhou,Quanzhou,24.9139,118.5858,China,CN,Fujian,minor,6480000
91,Miami,Miami,25.7839,-80.2102,United States,US,Florida,,6445545
92,Wuxi,Wuxi,31.5667,120.2833,China,CN,Jiangsu,minor,6372624
93,Huanggang,Huanggang,30.45,114.875,China,CN,Hubei,minor,6333000
94,Maoming,Maoming,21.6618,110.9178,China,CN,Guangdong,minor,6313200
95,Nanchong,Nanchong,30.7991,106.0784,China,CN,Sichuan,minor,6278614
96,Zunyi,Zunyi,27.705,106.9336,China,CN,Guizhou,,6270700
97,Qujing,Qujing,25.5102,103.8029,China,CN,Yunnan,,6155400
98,Baghdad,Baghdad,33.35,44.4167,Iraq,IQ,Baghdād,primary,6107000
99,Xinyang,Xinyang,32.1264,114.0672,China,CN,Henan,,6109106
100,Jieyang,Jieyang,23.5533,116.3649,China,CN,Guangdong,minor,6089400
101,Khartoum,Khartoum,15.6031,32.5265,Sudan,SD,Khartoum,primary,6017000
102,Madrid,Madrid,40.4167,-3.7167,Spain,ES,Madrid,primary,6006000
103,Allahābād,Allahabad,25.45,81.85,India,IN,Uttar Pradesh,,5954391
104,Yulin,Yulin,22.6293,110.1507,China,CN,Guangxi,minor,5849700
105,Changde,Changde,29.0397,111.6839,China,CN,Hunan,minor,5827200
106,Liaocheng,Liaocheng,36.45,115.9833,China,CN,Shandong,minor,5789863
107,Qingdao,Qingdao,36.1167,120.4,China,CN,Shandong,minor,5775000
108,Dallas,Dallas,32.7936,-96.7662,United States,US,Texas,,5743938
109,Nangandao,Nangandao,35.2992,113.8851,China,CN,Henan,minor,5708191
110,Xiangyang,Xiangyang,32.0654,112.1531,China,CN,Hubei,minor,5680000
111,Philadelphia,Philadelphia,40.0077,-75.1339,United States,US,Pennsylvania,,5649300
112,Giza,Giza,29.987,31.2118,Egypt,EG,Al Jīzah,admin,5598402
113,Lu’an,Lu'an,31.7542,116.5078,China,CN,Anhui,minor,5611701
114,Zhaotong,Zhaotong,27.3328,103.7144,China,CN,Yunnan,,5591000
115,Yichun,Yichun,27.8041,114.383,China,CN,Jiangxi,minor,5573200
116,Dezhou,Dezhou,37.4513,116.3105,China,CN,Shandong,minor,5568235
117,Nairobi,Nairobi,-1.2864,36.8172,Kenya,KE,Nairobi City,primary,5545000
118,Nanchang,Nanchang,28.6842,115.8872,China,CN,Jiangxi,admin,5545500
119,Tai’an,Tai'an,36.2001,117.0809,China,CN,Shandong,,5494207
120,Dazhou,Dazhou,31.2152,107.4947,China,CN,Sichuan,minor,5468097
121,Houston,Houston,29.7863,-95.3889,United States,US,Texas,,5464251
122,Guadalajara,Guadalajara,20.6767,-103.3475,Mexico,MX,Jalisco,admin,5437000
123,Yongzhou,Yongzhou,26.4515,111.5953,China,CN,Hunan,,5452100
124,Atlanta,Atlanta,33.7627,-84.4224,United States,US,Georgia,admin,5449398
125,Rangoon,Rangoon,16.795,96.16,Myanmar,MM,Yangon,primary,5430000
126,Toronto,Toronto,43.7417,-79.3733,Canada,CA,Ontario,admin,5429524
127,Suihua,Suihua,46.6384,126.9808,China,CN,Heilongjiang,minor,5418153
128,Saint Petersburg,Saint Petersburg,59.95,30.3167,Russia,RU,Sankt-Peterburg,admin,5384342
129,Washington,Washington,38.9047,-77.0163,United States,US,District of Columbia,primary,5379184
130,Qiqihar,Qiqihar,47.3398,123.9512,China,CN,Heilongjiang,minor,5367003
131,Suzhou,Suzhou,33.6333,116.9683,China,CN,Anhui,,5352924
132,Shantou,Shantou,23.3735,116.6941,China,CN,Guangdong,minor,5319028
133,Weinan,Weinan,34.4996,109.4684,China,CN,Shaanxi,minor,5286077
134,Changzhou,Changzhou,31.8122,119.9692,China,CN,Jiangsu,minor,5278121
135,Singapore,Singapore,1.3,103.8,Singapore,SG,Central Singapore,primary,5271000
136,Fuzhou,Fuzhou,26.0769,119.2917,China,CN,Fujian,admin,5245000
137,Pudong,Pudong,31.2231,121.5397,China,CN,Shanghai,minor,5187200
138,Belo Horizonte,Belo Horizonte,-19.9281,-43.9419,Brazil,BR,Minas Gerais,admin,5159000
139,Zhangzhou,Zhangzhou,24.5093,117.6612,China,CN,Fujian,minor,5140000
140,Yuncheng,Yuncheng,35.0304,110.998,China,CN,Shanxi,,5134779
141,Suzhou,Suzhou,31.304,120.6164,China,CN,Jiangsu,minor,5103000
142,Xianyang,Xianyang,34.35,108.7167,China,CN,Shaanxi,minor,5096001
143,Guilin,Guilin,25.2667,110.2833,China,CN,Guangxi,minor,5085500
144,Taizhou,Taizhou,32.4831,119.9,China,CN,Jiangsu,minor,5031000
145,Abidjan,Abidjan,5.3364,-4.0267,Côte d'Ivoire,CI,Abidjan,primary,4980000
146,Huaihua,Huaihua,27.5494,109.9592,China,CN,Hunan,,4979600
147,Ji’an,Ji'an,27.1172,114.9793,China,CN,Jiangxi,minor,4956600
148,Xiaoganzhan,Xiaoganzhan,30.9273,113.911,China,CN,Hubei,,4921000
149,Pingdingshan,Pingdingshan,33.735,113.2999,China,CN,Henan,,4904701
150,Jiujiang,Jiujiang,29.7048,116.0021,China,CN,Jiangxi,minor,4896800
151,Sūrat,Surat,21.17,72.83,India,IN,Gujarāt,,4875000
152,Guiyang,Guiyang,26.5794,106.7078,China,CN,Guizhou,admin,4881900
153,Alexandria,Alexandria,31.2,29.9167,Egypt,EG,Al Iskandarīyah,admin,4870000
154,Bozhou,Bozhou,33.8626,115.7742,China,CN,Anhui,,4850657
155,Sydney,Sydney,-33.865,151.2094,Australia,AU,New South Wales,admin,4840600
156,Huizhou,Huizhou,23.1115,114.4152,China,CN,Guangdong,minor,4830000
157,Huai’an,Huai'an,33.5,119.1331,China,CN,Jiangsu,,4799889
158,Chenzhou,Chenzhou,25.7989,113.0267,China,CN,Hunan,minor,4744500
159,Barcelona,Barcelona,41.3825,2.1769,Spain,ES,Catalonia,admin,4735000
160,Anqing,Anqing,30.5,117.0333,China,CN,Anhui,minor,4723000
161,Suqian,Suqian,33.9331,118.2831,China,CN,Jiangsu,,4719178
162,Boston,Boston,42.3188,-71.0846,United States,US,Massachusetts,admin,4688346
163,Jiangmen,Jiangmen,22.5833,113.0833,China,CN,Guangdong,minor,4630300
164,Mianyang,Mianyang,31.4669,104.7385,China,CN,Sichuan,minor,4613862
165,Harbin,Harbin,45.75,126.6333,China,CN,Heilongjiang,admin,4583000
166,Huanglongsi,Huanglongsi,34.7936,114.3403,China,CN,Henan,,4564900
167,Melbourne,Melbourne,-37.8136,144.9631,Australia,AU,Victoria,admin,4529500
168,Zibo,Zibo,36.7831,118.0497,China,CN,Shandong,,4530597
169,Dalian,Dalian,38.9,121.6,China,CN,Liaoning,,4480000
170,Hengshui,Hengshui,37.7348,115.686,China,CN,Hebei,,4472000
171,Yibin,Yibin,28.7596,104.64,China,CN,Sichuan,minor,4471896
172,Yangzhou,Yangzhou,32.3912,119.4363,China,CN,Jiangsu,,4459760
173,Timbío,Timbio,2.3528,-76.6819,Colombia,CO,Cauca,minor,4444444
174,Johannesburg,Johannesburg,-26.2044,28.0416,South Africa,ZA,Gauteng,admin,4434827
175,Yiyang,Yiyang,28.5833,112.3333,China,CN,Hunan,,4413800
176,Guigang,Guigang,23.0961,109.6092,China,CN,Guangxi,minor,4409200
177,Xinpu,Xinpu,34.5906,119.1801,China,CN,Jiangsu,minor,4393482
178,Meizhou,Meizhou,24.2998,116.1191,China,CN,Guangdong,minor,4378800
179,Casablanca,Casablanca,33.5992,-7.62,Morocco,MA,Casablanca-Settat,admin,4370000
180,Langfang,Langfang,39.5196,116.7006,China,CN,Hebei,,4358839
181,Zhangjiakou,Zhangjiakou,40.8108,114.8811,China,CN,Hebei,,4345485
182,Chifeng,Chifeng,42.2663,118.9223,China,CN,Inner Mongolia,minor,4341245
183,Linfen,Linfen,36.0812,111.5087,China,CN,Shanxi,,4316610
184,Jiangguanchi,Jiangguanchi,34.0244,113.8201,China,CN,Henan,minor,4307488
185,Kabul,Kabul,34.5328,69.1658,Afghanistan,AF,Kābul,primary,4273156
186,Phoenix,Phoenix,33.5722,-112.0891,United States,US,Arizona,admin,4219697
187,Luzhou,Luzhou,28.8918,105.4409,China,CN,Sichuan,minor,4218427
188,Taiyuan,Taiyuan,37.8733,112.5425,China,CN,Shanxi,admin,4201592
189,Zhaoqing,Zhaoqing,23.05,112.4667,China,CN,Guangdong,minor,4151700
190,Xiaoxita,Xiaoxita,30.7083,111.2803,China,CN,Hubei,minor,4137900
191,Xiamen,Xiamen,24.4797,118.0819,China,CN,Fujian,minor,4110000
192,Fuzhou,Fuzhou,27.9814,116.3577,China,CN,Jiangxi,,4047200
193,Liuzhou,Liuzhou,24.3264,109.4281,China,CN,Guangxi,minor,4041700
194,Zhuzhou,Zhuzhou,27.8407,113.1469,China,CN,Hunan,minor,4020800
195,Amman,Amman,31.95,35.9333,Jordan,JO,Al ‘Āşimah,primary,4007526
196,Jeddah,Jeddah,21.5428,39.1728,Saudi Arabia,SA,Makkah al Mukarramah,,3976000
197,Chuzhou,Chuzhou,32.3062,118.3115,China,CN,Anhui,,3937868
198,Loudi,Loudi,27.7378,111.9974,China,CN,Hunan,,3931800
199,Deyang,Deyang,31.1289,104.395,China,CN,Sichuan,minor,3877000
200,Qingyuan,Qingyuan,23.6842,113.0507,China,CN,Guangdong,minor,3874000
201,Kano,Kano,12.0,8.5167,Nigeria,NG,Kano,admin,3848885
202,Wuhu,Wuhu,31.334,118.3622,China,CN,Anhui,minor,3842100
203,Seattle,Seattle,47.6211,-122.3244,United States,US,Washington,,3789215
204,Yokohama,Yokohama,35.4333,139.6333,Japan,JP,Kanagawa,admin,3757630
205,Binzhou,Binzhou,37.3806,118.0125,China,CN,Shandong,,3748474
206,Baojishi,Baojishi,34.3609,107.1751,China,CN,Shaanxi,,3738700
207,Zaozhuang,Zaozhuang,34.8667,117.55,China,CN,Shandong,,3729140
208,Neijiang,Neijiang,29.5872,105.0635,China,CN,Sichuan,minor,3702847
209,Baicheng,Baicheng,23.901,106.6194,China,CN,Guangxi,minor,3669400
210,Berlin,Berlin,52.5167,13.3833,Germany,DE,Berlin,primary,3664088
211,Anshan,Anshan,41.1066,122.9895,China,CN,Liaoning,,3645884
212,Lanzhou,Lanzhou,36.0617,103.8318,China,CN,Gansu,admin,3616163
213,Puyang,Puyang,35.7639,115.03,China,CN,Henan,minor,3598740
214,San Francisco,San Francisco,37.7562,-122.443,United States,US,California,,3592294
215,Jiaozuo,Jiaozuo,35.229,113.2304,China,CN,Henan,,3590700
216,Hechi,Hechi,24.6928,108.085,China,CN,Guangxi,minor,3545700
217,Montréal,Montreal,45.5089,-73.5617,Canada,CA,Quebec,,3519595
218,Detroit,Detroit,42.3834,-83.1024,United States,US,Michigan,,3506126
219,Chengde,Chengde,40.9739,117.9322,China,CN,Hebei,,3473201
220,Busan,Busan,35.1,129.0403,South Korea,KR,Busan,admin,3453198
221,Algiers,Algiers,36.7764,3.0586,Algeria,DZ,Alger,primary,3415811
222,Hanzhong,Hanzhong,33.0794,107.026,China,CN,Shaanxi,,3416196
223,Shiyan,Shiyan,32.6351,110.7755,China,CN,Hubei,minor,3398000
224,Lucknow,Lucknow,26.847,80.947,India,IN,Uttar Pradesh,admin,3382000
225,Siping,Siping,43.1715,124.3644,China,CN,Jilin,,3385156
226,Yulinshi,Yulinshi,38.2655,109.7388,China,CN,Shaanxi,,3351436
227,Changzhi,Changzhi,36.1953,113.097,China,CN,Shanxi,minor,3334565
228,Qinzhou,Qinzhou,21.95,108.6167,China,CN,Guangxi,minor,3304400
229,Bazhou,Bazhou,31.8576,106.7559,China,CN,Sichuan,minor,3283148
230,Qincheng,Qincheng,34.5809,105.7311,China,CN,Gansu,minor,3262549
231,Zhongshan,Zhongshan,22.5333,113.35,China,CN,Guangdong,minor,3260000
232,Suining,Suining,30.5098,105.5737,China,CN,Sichuan,minor,3252619
233,Leshan,Leshan,29.5854,103.7575,China,CN,Sichuan,,3235759
234,San Diego,San Diego,32.8312,-117.1225,United States,US,California,,3220118
235,Faisalabad,Faisalabad,31.418,73.079,Pakistan,PK,Punjab,minor,3203846
236,Guang’an,Guang'an,30.4673,106.6336,China,CN,Sichuan,minor,3205476
237,Tongren,Tongren,27.7233,109.1885,China,CN,Guizhou,,3168800
238,Bengbu,Bengbu,32.9354,117.3531,China,CN,Anhui,,3164467
239,Santa Cruz,Santa Cruz,-17.7892,-63.1975,Bolivia,BO,Santa Cruz,admin,3151676
240,Qinhuangdao,Qinhuangdao,39.9398,119.5881,China,CN,Hebei,,3146300
241,Tongliao,Tongliao,43.6172,122.264,China,CN,Inner Mongolia,minor,3139153
242,Jinzhou,Jinzhou,41.1144,121.1292,China,CN,Liaoning,,3126463
243,Zhenjiang,Zhenjiang,32.2109,119.4551,China,CN,Jiangsu,minor,3113384
244,Ürümqi,Urumqi,43.8225,87.6125,China,CN,Xinjiang,admin,3112559
245,Heyuan,Heyuan,23.7503,114.6923,China,CN,Guangdong,minor,3093900
246,Jaipur,Jaipur,26.9167,75.8667,India,IN,Rājasthān,admin,3073350
247,Xinzhou,Xinzhou,38.4178,112.7233,China,CN,Shanxi,minor,3067501
248,Wuzhou,Wuzhou,23.4833,111.3167,China,CN,Guangxi,minor,3061100
249,Addis Ababa,Addis Ababa,9.0272,38.7369,Ethiopia,ET,Ādīs Ābeba,primary,3041002
250,Chaoyang,Chaoyang,41.5757,120.4486,China,CN,Liaoning,,3044641
251,Brasília,Brasilia,-15.7939,-47.8828,Brazil,BR,Distrito Federal,primary,3015268
252,Mashhad,Mashhad,36.3069,59.6042,Iran,IR,Khorāsān-e Raẕavī,admin,3001184
253,Shaoguan,Shaoguan,24.8011,113.5927,China,CN,Guangdong,minor,2997600
254,Kuwait City,Kuwait City,29.375,47.98,Kuwait,KW,Al ‘Āşimah,primary,2989000
255,Shanwei,Shanwei,22.7664,115.3331,China,CN,Guangdong,minor,2993600
256,Quezon City,Quezon City,14.6333,121.0333,Philippines,PH,Quezon,admin,2960048
257,Minneapolis,Minneapolis,44.9635,-93.2678,United States,US,Minnesota,,2977172
258,Kyiv,Kyiv,50.45,30.5236,Ukraine,UA,"Kyyiv, Misto",primary,2963199
259,Sanaa,Sanaa,15.35,44.2,Yemen,YE,Amānat al ‘Āşimah,primary,2957000
260,Meishan,Meishan,30.0575,103.8381,China,CN,Sichuan,,2950545
261,Guatemala City,Guatemala City,14.6099,-90.5252,Guatemala,GT,Guatemala,primary,2934841
262,Incheon,Incheon,37.4639,126.6486,South Korea,KR,Incheon,admin,2913024
263,Ningde,Ningde,26.6617,119.5228,China,CN,Fujian,minor,2910000
264,Tampa,Tampa,27.9942,-82.4451,United States,US,Florida,,2908063
265,Daqing,Daqing,46.5979,125.008,China,CN,Heilongjiang,,2904532
266,Putian,Putian,25.4394,119.0103,China,CN,Fujian,minor,2900000
267,Bandung,Bandung,-6.95,107.5667,Indonesia,ID,Jawa Barat,admin,2875673
268,Surabaya,Surabaya,-7.2458,112.7378,Indonesia,ID,Jawa Timur,admin,2885555
269,Salvador,Salvador,-12.9708,-38.5108,Brazil,BR,Bahia,admin,2886698
270,Denver,Denver,39.7621,-104.8759,United States,US,Colorado,admin,2876625
271,Rome,Rome,41.8931,12.4828,Italy,IT,Lazio,primary,2872800
272,La Paz,La Paz,-16.4942,-68.1475,Bolivia,BO,La Paz,primary,2867504
273,Hohhot,Hohhot,40.8151,111.6629,China,CN,Inner Mongolia,admin,2866615
274,Xiangtan,Xiangtan,27.8431,112.9228,China,CN,Hunan,,2864800
275,Pyongyang,Pyongyang,39.03,125.73,North Korea,KP,P’yŏngyang,primary,2863000
276,Taichung,Taichung,24.15,120.6667,Taiwan,TW,Taichung,admin,2803894
277,Weihai,Weihai,37.5,122.1,China,CN,Shandong,minor,2804771
278,Rizhao,Rizhao,35.4164,119.4331,China,CN,Shandong,minor,2801013
279,Mudanjiang,Mudanjiang,44.5861,129.5997,China,CN,Heilongjiang,minor,2798723
280,Kaohsiung,Kaohsiung,22.6167,120.3,Taiwan,TW,Kaohsiung,admin,2773533
281,Guayaquil,Guayaquil,-2.19,-79.8875,Ecuador,EC,Guayas,admin,2723665
282,Tieling,Tieling,42.2841,123.8365,China,CN,Liaoning,,2717732
283,Cawnpore,Cawnpore,26.4725,80.3311,India,IN,Uttar Pradesh,,2701324
284,Dingxi,Dingxi,35.5806,104.6263,China,CN,Gansu,minor,2698624
285,Taipei,Taipei,25.0478,121.5319,Taiwan,TW,Taipei,,2684567
286,Nanping,Nanping,26.6448,118.1728,China,CN,Fujian,minor,2690000
287,Zigong,Zigong,29.3498,104.7645,China,CN,Sichuan,,2678899
288,Chaozhou,Chaozhou,23.67,116.63,China,CN,Guangdong,minor,2656600
289,Baotou,Baotou,40.6562,109.8345,China,CN,Inner Mongolia,,2650364
290,Gulou,Gulou,26.0819,119.2981,China,CN,Fujian,minor,2606000
291,Longyan,Longyan,25.0881,117.0244,China,CN,Fujian,minor,2640000
292,Ankang,Ankang,32.6877,109.0235,China,CN,Shaanxi,,2629906
293,Baoshan,Baoshan,25.1211,99.169,China,CN,Yunnan,,2627000
294,Huludao,Huludao,40.7094,120.8378,China,CN,Liaoning,minor,2623541
295,Antananarivo,Antananarivo,-18.9386,47.5214,Madagascar,MG,Antananarivo,primary,2610000
296,Yanjiang,Yanjiang,30.1256,104.6397,China,CN,Sichuan,minor,2593843
297,Chattogram,Chattogram,22.335,91.8325,Bangladesh,BD,Chittagong,admin,2581643
298,Santo Domingo,Santo Domingo,18.4764,-69.8933,Dominican Republic,DO,Ozama,primary,2581827
299,Sanming,Sanming,26.2658,117.6302,China,CN,Fujian,minor,2580000
300,Longba,Longba,33.535,105.349,China,CN,Gansu,,2567718
301,Brooklyn,Brooklyn,40.6501,-73.9496,United States,US,New York,,2559903
302,Yangjiang,Yangjiang,21.8556,111.9627,China,CN,Guangdong,minor,2555600
303,Jiamusi,Jiamusi,46.8081,130.3653,China,CN,Heilongjiang,minor,2552097
304,Ibadan,Ibadan,7.3964,3.9167,Nigeria,NG,Oyo,admin,2550593
305,Luohe,Luohe,33.583,114.0109,China,CN,Henan,minor,2544266
306,Lincang,Lincang,23.8864,100.0871,China,CN,Yunnan,,2536000
307,Medellín,Medellin,6.2447,-75.5748,Colombia,CO,Antioquia,admin,2529403
308,Xuanzhou,Xuanzhou,30.9475,118.7518,China,CN,Anhui,,2532938
309,Yunfu,Yunfu,22.9242,112.0353,China,CN,Guangdong,minor,2526900
310,Dubai,Dubai,25.2697,55.3094,United Arab Emirates,AE,Dubayy,admin,2502715
311,Mirzāpur,Mirzapur,25.15,82.58,India,IN,Uttar Pradesh,,2496970
312,Tashkent,Tashkent,41.3,69.2667,Uzbekistan,UZ,Toshkent,primary,2497900
313,Guangyuan,Guangyuan,32.4353,105.8398,China,CN,Sichuan,,2484122
314,Cali,Cali,3.44,-76.5197,Colombia,CO,Valle del Cauca,admin,2471474
315,Huangshi,Huangshi,30.2018,115.0326,China,CN,Hubei,minor,2471700
316,Ouagadougou,Ouagadougou,12.3686,-1.5275,Burkina Faso,BF,Centre,primary,2453496
317,Daegu,Daegu,35.8667,128.6,South Korea,KR,Daegu,admin,2461002
318,Fortaleza,Fortaleza,-3.7275,-38.5275,Brazil,BR,Ceará,admin,2452185
319,Yaoundé,Yaounde,3.8578,11.5181,Cameroon,CM,Centre,primary,2440462
320,Douala,Douala,4.05,9.7,Cameroon,CM,Littoral,admin,2446945
321,Jilin,Jilin,43.8519,126.5481,China,CN,Jilin,,2396000
322,Dandong,Dandong,40.1167,124.3833,China,CN,Liaoning,,2444697
323,Lianshan,Lianshan,40.7523,120.828,China,CN,Liaoning,minor,2426000
324,Yingkou,Yingkou,40.6653,122.2297,China,CN,Liaoning,minor,2428534
325,Nāgpur,Nagpur,21.1539,79.0831,India,IN,Mahārāshtra,,2405665
326,Omdurman,Omdurman,15.6167,32.48,Sudan,SD,Khartoum,,2395159
327,Bekasi,Bekasi,-6.2333,107.0,Indonesia,ID,Jawa Barat,,2381053
328,Ghāziābād,Ghaziabad,28.6667,77.4167,India,IN,Uttar Pradesh,,2375820
329,Yuxi,Yuxi,24.3495,102.5432,China,CN,Yunnan,minor,2386000
330,Brisbane,Brisbane,-27.4678,153.0281,Australia,AU,Queensland,admin,2360241
331,Anshun,Anshun,26.2456,105.934,China,CN,Guizhou,,2353100
332,Depok,Depok,-6.394,106.8225,Indonesia,ID,Jawa Barat,,2330333
333,Shangzhou,Shangzhou,33.868,109.9244,China,CN,Shaanxi,,2341742
334,Huainan,Huainan,32.4831,117.0164,China,CN,Anhui,,2333896
335,Kuaidamao,Kuaidamao,41.7302,125.9471,China,CN,Jilin,minor,2324439
336,Accra,Accra,5.6037,-0.187,Ghana,GH,Greater Accra,primary,2291352
337,Fukuoka,Fukuoka,33.6,130.4167,Japan,JP,Fukuoka,admin,2280000
338,Jincheng,Jincheng,35.4906,112.8483,China,CN,Shanxi,minor,2279146
339,Vancouver,Vancouver,49.25,-123.1,Canada,CA,British Columbia,,2264823
340,Tangerang,Tangerang,-6.1783,106.6319,Indonesia,ID,Jawa Barat,,2237006
341,Sanmenxia,Sanmenxia,34.7736,111.195,China,CN,Henan,,2234018
342,Laibin,Laibin,23.7333,109.2333,China,CN,Guangxi,minor,2233900
343,Queens,Queens,40.7498,-73.7976,United States,US,New York,,2230722
344,Qinbaling,Qinbaling,35.7278,107.64,China,CN,Gansu,,2211191
345,Xining,Xining,36.6239,101.7787,China,CN,Qinghai,admin,2208708
346,Ma’anshan,Ma'anshan,31.6858,118.5101,China,CN,Anhui,minor,2202899
347,Yan’an,Yan'an,36.5952,109.4863,China,CN,Shaanxi,,2187009
348,Baku,Baku,40.3667,49.8352,Azerbaijan,AZ,Bakı,primary,2181800
349,Gaoping,Gaoping,30.7824,106.1281,China,CN,Sichuan,minor,2174000
350,Harare,Harare,-17.8292,31.0522,Zimbabwe,ZW,Harare,primary,2150000
351,Havana,Havana,23.1367,-82.3589,Cuba,CU,La Habana,primary,2141652
352,Phnom Penh,Phnom Penh,11.5696,104.921,Cambodia,KH,Phnom Penh,primary,2129371
353,Ningbo,Ningbo,29.875,121.5492,China,CN,Zhejiang,minor,2125500
354,Mogadishu,Mogadishu,2.0408,45.3425,Somalia,SO,Banaadir,primary,2120000
355,Puning,Puning,23.2993,116.1586,China,CN,Guangdong,,2118200
356,Medan,Medan,3.6667,98.6667,Indonesia,ID,Sumatera Utara,admin,2109330
357,Huaibei,Huaibei,33.9562,116.789,China,CN,Anhui,,2114276
358,Qingyang,Qingyang,24.8141,118.5792,China,CN,Fujian,minor,2111000
359,Riverside,Riverside,33.9381,-117.3948,United States,US,California,,2107852
360,Baltimore,Baltimore,39.3051,-76.6144,United States,US,Maryland,,2106068
361,Haiphong,Haiphong,20.8,106.6667,Vietnam,VN,Hải Phòng,admin,2103500
362,Las Vegas,Las Vegas,36.2333,-115.2654,United States,US,Nevada,,2104198
363,Chongzuo,Chongzuo,22.4167,107.3667,China,CN,Guangxi,minor,2099400
364,Rawalpindi,Rawalpindi,33.6007,73.0679,Pakistan,PK,Punjab,minor,2098231
365,Kumasi,Kumasi,6.6833,-1.6167,Ghana,GH,Ashanti,admin,2069350
366,Portland,Portland,45.5372,-122.65,United States,US,Oregon,,2074775
367,Vadodara,Vadodara,22.3,73.2,India,IN,Gujarāt,,2065771
368,Hezhou,Hezhou,24.4164,111.5478,China,CN,Guangxi,minor,2072600
369,Pingliang,Pingliang,35.5412,106.6819,China,CN,Gansu,minor,2068033
370,San Antonio,San Antonio,29.4658,-98.5253,United States,US,Texas,,2049293
371,Perth,Perth,-31.9522,115.8589,Australia,AU,Western Australia,admin,2039200
372,Vishākhapatnam,Vishakhapatnam,17.7333,83.3167,India,IN,Andhra Pradesh,,2035922
373,Shengli,Shengli,37.45,118.4667,China,CN,Shandong,minor,2035338
374,Gujranwala,Gujranwala,32.15,74.1833,Pakistan,PK,Punjab,minor,2027001
375,Baicheng,Baicheng,45.6148,122.832,China,CN,Jilin,minor,2032356
376,Fushun,Fushun,41.8708,123.8917,China,CN,Liaoning,,2024000
377,St. Louis,St. Louis,38.6358,-90.2451,United States,US,Missouri,,2024074
378,Bamako,Bamako,12.6458,-7.9922,Mali,ML,Bamako,primary,2009109
379,Quito,Quito,-0.22,-78.5125,Ecuador,EC,Pichincha,primary,2011388
380,Minsk,Minsk,53.9022,27.5618,Belarus,BY,Minsk,primary,2009786
381,Indore,Indore,22.7206,75.8472,India,IN,Madhya Pradesh,,1994397
382,Yinchuan,Yinchuan,38.4795,106.2254,China,CN,Ningxia,admin,1993088
383,Kananga,Kananga,-5.8961,22.4167,Congo (Kinshasa),CD,Kasaï Central,admin,1971704
384,Peshawar,Peshawar,34.0,71.5,Pakistan,PK,Khyber Pakhtunkhwa,admin,1970042
385,Sapporo,Sapporo,43.0621,141.3544,Japan,JP,Hokkaidō,admin,1961690
386,Eşfahān,Esfahan,32.6447,51.6675,Iran,IR,Eşfahān,admin,1961260
387,Caracas,Caracas,10.5,-66.9333,Venezuela,VE,Distrito Capital,primary,1943901
388,Pingxiang,Pingxiang,27.6333,113.85,China,CN,Jiangxi,minor,1933200
389,Aleppo,Aleppo,36.2,37.15,Syria,SY,Ḩalab,admin,1916781
390,Tijuana,Tijuana,32.525,-117.0333,Mexico,MX,Baja California,minor,1922523
391,Almaty,Almaty,43.25,76.9,Kazakhstan,KZ,Almaty,admin,1916822
392,Vienna,Vienna,48.2083,16.3725,Austria,AT,Wien,primary,1911191
393,Thāne,Thane,19.18,72.9633,India,IN,Mahārāshtra,,1886941
394,Sacramento,Sacramento,38.5667,-121.4683,United States,US,California,admin,1898019
395,Blantyre,Blantyre,-15.7861,35.0058,Malawi,MW,Blantyre,admin,1895973
396,Tainan,Tainan,22.9833,120.1833,Taiwan,TW,Tainan,admin,1883831
397,Zhuhai,Zhuhai,22.2769,113.5678,China,CN,Guangdong,minor,1891100
398,Bucharest,Bucharest,44.4,26.0833,Romania,RO,Bucureşti,primary,1883425
399,Curitiba,Curitiba,-25.4297,-49.2719,Brazil,BR,Paraná,admin,1879355
400,Multan,Multan,30.1978,71.4711,Pakistan,PK,Punjab,minor,1871843
401,Xiping,Xiping,40.082,113.2981,China,CN,Shanxi,minor,1873000
402,Ecatepec,Ecatepec,19.6097,-99.06,Mexico,MX,México,minor,1857188
403,Jixi,Jixi,45.2937,130.965,China,CN,Heilongjiang,minor,1862165
404,Saidu Sharif,Saidu Sharif,34.75,72.3572,Pakistan,PK,Khyber Pakhtunkhwa,minor,1860310
405,Liaoyang,Liaoyang,41.2643,123.1772,China,CN,Liaoning,,1858768
406,Hamburg,Hamburg,53.55,10.0,Germany,DE,Hamburg,admin,1852478
407,Meru,Meru,0.05,37.65,Kenya,KE,Meru,admin,1833000
408,Brazzaville,Brazzaville,-4.2667,15.2833,Congo (Brazzaville),CG,Brazzaville,primary,1827000
409,Orlando,Orlando,28.4772,-81.3369,United States,US,Florida,,1822394
410,Fuxin,Fuxin,42.0127,121.6486,China,CN,Liaoning,,1819339
411,Wuwei,Wuwei,37.9278,102.6329,China,CN,Gansu,minor,1815059
412,Manaus,Manaus,-3.1,-60.0167,Brazil,BR,Amazonas,admin,1802014
413,Bhopāl,Bhopal,23.25,77.4167,India,IN,Madhya Pradesh,admin,1798218
414,San Jose,San Jose,37.3019,-121.8486,United States,US,California,,1798103
415,Warsaw,Warsaw,52.23,21.0111,Poland,PL,Mazowieckie,primary,1790658
416,Lubumbashi,Lubumbashi,-11.6697,27.4581,Congo (Kinshasa),CD,Haut-Katanga,admin,1786397
417,Davao,Davao,7.0667,125.6,Philippines,PH,Davao,admin,1776949
418,Haikou,Haikou,20.02,110.32,China,CN,Hainan,admin,1776141
419,Damascus,Damascus,33.5131,36.2919,Syria,SY,Dimashq,primary,1754000
420,Shuyangzha,Shuyangzha,34.1299,118.7734,China,CN,Jiangsu,,1770000
421,Brussels,Brussels,50.8353,4.3314,Belgium,BE,Brussels-Capital Region,primary,1743000
422,Lusaka,Lusaka,-15.4167,28.2833,Zambia,ZM,Lusaka,primary,1742979
423,Hyderabad City,Hyderabad City,25.3792,68.3683,Pakistan,PK,Sindh,minor,1732693
424,Budapest,Budapest,47.4983,19.0408,Hungary,HU,Budapest,primary,1723836
425,Shuozhou,Shuozhou,39.3408,112.4292,China,CN,Shanxi,minor,1714857
426,Cleveland,Cleveland,41.4767,-81.6804,United States,US,Ohio,,1710093
427,Benxi,Benxi,41.292,123.761,China,CN,Liaoning,,1709538
428,Baiyin,Baiyin,36.5448,104.1766,China,CN,Gansu,minor,1708751
429,Pittsburgh,Pittsburgh,40.4396,-79.9762,United States,US,Pennsylvania,,1703266
430,Patna,Patna,25.61,85.1414,India,IN,Bihār,admin,1684222
431,Mosul,Mosul,36.3667,43.1167,Iraq,IQ,Nīnawá,admin,1694000
432,Caloocan City,Caloocan City,14.65,120.9667,Philippines,PH,Caloocan,admin,1661584
433,Austin,Austin,30.3004,-97.7522,United States,US,Texas,admin,1687311
434,Sanzhou,Sanzhou,30.82,108.4,China,CN,Chongqing,,1680000
435,Beihai,Beihai,21.4667,109.1,China,CN,Guangxi,minor,1680000
436,Mecca,Mecca,21.4225,39.8261,Saudi Arabia,SA,Makkah al Mukarramah,admin,1675368
437,Heihe,Heihe,50.2458,127.4886,China,CN,Heilongjiang,minor,1673899
438,Jingdezhen,Jingdezhen,29.2942,117.2036,China,CN,Jiangxi,minor,1673200
439,Conakry,Conakry,9.538,-13.6773,Guinea,GN,Conakry,primary,1667864
440,Kampala,Kampala,0.3136,32.5811,Uganda,UG,Kampala,primary,1659600
441,Cincinnati,Cincinnati,39.1413,-84.5061,United States,US,Ohio,,1662691
442,Recife,Recife,-8.0539,-34.8808,Brazil,BR,Pernambuco,admin,1653461
443,Yushan,Yushan,31.3867,120.9766,China,CN,Jiangsu,minor,1651200
444,Zhongli,Zhongli,24.965,121.2168,Taiwan,TW,Taoyuan,,1632616
445,Kansas City,Kansas City,39.1239,-94.5541,United States,US,Missouri,,1636715
446,Manhattan,Manhattan,40.7834,-73.9662,United States,US,New York,,1628706
447,Bilāspur,Bilaspur,22.15,82.0167,India,IN,Chhattīsgarh,,1625502
448,Semarang,Semarang,-6.9667,110.4167,Indonesia,ID,Jawa Tengah,admin,1621384
449,Ludhiāna,Ludhiana,30.9083,75.8486,India,IN,Punjab,,1618879
450,Novosibirsk,Novosibirsk,55.0333,82.9167,Russia,RU,Novosibirskaya Oblast’,admin,1602915
451,Chengtangcun,Chengtangcun,35.0833,117.15,China,CN,Shandong,,1603659
452,Āgra,Agra,27.1724,78.0131,India,IN,Uttar Pradesh,,1592000
453,Karaj,Karaj,35.8327,50.9915,Iran,IR,Alborz,admin,1592492
454,Wenzhou,Wenzhou,27.9991,120.6561,China,CN,Zhejiang,,1588700
455,Indianapolis,Indianapolis,39.7771,-86.1458,United States,US,Indiana,admin,1588961
456,León de los Aldama,Leon de los Aldama,21.1167,-101.6833,Mexico,MX,Guanajuato,minor,1579803
457,Puebla,Puebla,19.0333,-98.1833,Mexico,MX,Puebla,admin,1576259
458,Kalyān,Kalyan,19.2502,73.1602,India,IN,Mahārāshtra,,1576614
459,Madurai,Madurai,9.9197,78.1194,India,IN,Tamil Nādu,minor,1561129
460,Mbuji-Mayi,Mbuji-Mayi,-6.1209,23.5967,Congo (Kinshasa),CD,Kasaï Oriental,admin,1559073
461,Hebi,Hebi,35.7497,114.2887,China,CN,Henan,,1569208
462,Shīrāz,Shiraz,29.61,52.5425,Iran,IR,Fārs,admin,1565572
463,Jamshedpur,Jamshedpur,22.8,86.1833,India,IN,Jharkhand,,1558000
464,Columbus,Columbus,39.9862,-82.985,United States,US,Ohio,admin,1562009
465,Tabrīz,Tabriz,38.0833,46.2833,Iran,IR,Āz̄arbāyjān-e Sharqī,admin,1558693
466,Maracaibo,Maracaibo,10.6333,-71.6333,Venezuela,VE,Zulia,admin,1551539
467,Kawasaki,Kawasaki,35.5167,139.7,Japan,JP,Kanagawa,,1539522
468,Aba,Aba,5.1167,7.3667,Nigeria,NG,Abia,minor,1530000
469,Palembang,Palembang,-2.9833,104.7644,Indonesia,ID,Sumatera Selatan,admin,1535952
470,Zhangjiajie,Zhangjiajie,29.1255,110.4844,China,CN,Hunan,minor,1537900
471,Kōbe,Kobe,34.6913,135.183,Japan,JP,Hyōgo,admin,1513193
472,Charlotte,Charlotte,35.208,-80.8304,United States,US,North Carolina,,1512923
473,Changshu,Changshu,31.65,120.7333,China,CN,Jiangsu,,1510100
474,Lianjiang,Lianjiang,21.6146,110.2794,China,CN,Guangdong,,1509400
475,Ximeicun,Ximeicun,24.9633,118.3811,China,CN,Fujian,,1508000
476,Jianguang,Jianguang,28.1958,115.7833,China,CN,Jiangxi,,1507402
477,Yucheng,Yucheng,29.9888,103.0007,China,CN,Sichuan,minor,1507258
478,Belém,Belem,-1.4558,-48.5039,Brazil,BR,Pará,admin,1499641
479,Guiping,Guiping,23.4,110.0833,China,CN,Guangxi,minor,1496904
480,Leizhou,Leizhou,20.9147,110.0806,China,CN,Guangdong,minor,1494700
481,Gwangju,Gwangju,35.1667,126.9167,South Korea,KR,Gwangju,admin,1490092
482,Munich,Munich,48.1375,11.575,Germany,DE,Bavaria,admin,1488202
483,Nāsik,Nasik,20.0,73.7833,India,IN,Mahārāshtra,,1486053
484,Porto Alegre,Porto Alegre,-30.0328,-51.23,Brazil,BR,Rio Grande do Sul,admin,1484941
485,Valencia,Valencia,10.1667,-68.0,Venezuela,VE,Carabobo,admin,1484430
486,Onitsha,Onitsha,6.1667,6.7833,Nigeria,NG,Anambra,minor,1483000
487,Abu Dhabi,Abu Dhabi,24.4511,54.3969,United Arab Emirates,AE,Abū Z̧aby,primary,1483000
488,Virginia Beach,Virginia Beach,36.7335,-76.0435,United States,US,Virginia,,1478868
489,Daejeon,Daejeon,36.351,127.385,South Korea,KR,Daejeon,admin,1475221
490,Zapopan,Zapopan,20.7167,-103.4,Mexico,MX,Jalisco,minor,1476491
491,Yekaterinburg,Yekaterinburg,56.8356,60.6128,Russia,RU,Sverdlovskaya Oblast’,admin,1468833
492,Huazhou,Huazhou,32.6832,112.079,China,CN,Henan,minor,1468061
493,Kyōto,Kyoto,35.0117,135.7683,Japan,JP,Kyōto,admin,1464890
494,Shuangyashan,Shuangyashan,46.6388,131.1545,China,CN,Heilongjiang,minor,1462626
495,Pizhou,Pizhou,34.3422,118.0097,China,CN,Jiangsu,,1458038
496,El Kelaa des Srarhna,El Kelaa des Srarhna,32.05,-7.4,Morocco,MA,Marrakech-Safi,,1450021
497,Kharkiv,Kharkiv,50.0,36.2292,Ukraine,UA,Kharkivs’ka Oblast’,admin,1446107
498,Yangshe,Yangshe,31.8775,120.5512,China,CN,Jiangsu,minor,1432044
499,Guyuan,Guyuan,36.008,106.2782,China,CN,Ningxia,,1426000
500,Khulna,Khulna,22.8167,89.55,Bangladesh,BD,Khulna,admin,1400689
501,Muscat,Muscat,23.6139,58.5922,Oman,OM,Masqaţ,primary,1421409
502,Bronx,Bronx,40.8501,-73.8662,United States,US,New York,,1418207
503,Gaozhou,Gaozhou,21.9135,110.8481,China,CN,Guangdong,,1414100
504,Chizhou,Chizhou,30.6583,117.4849,China,CN,Anhui,minor,1402518
505,Farīdābād,Faridabad,28.4353,77.3147,India,IN,Haryāna,,1394000
506,Ulaanbaatar,Ulaanbaatar,47.9214,106.9055,Mongolia,MN,Ulaanbaatar,primary,1396288
507,Goiânia,Goiania,-16.6806,-49.2564,Brazil,BR,Goiás,admin,1393575
508,Fuqing,Fuqing,25.7232,119.3735,China,CN,Fujian,minor,1390487
509,Belgrade,Belgrade,44.8167,20.4667,Serbia,RS,Beograd,primary,1378682
510,Pingdu,Pingdu,36.7833,119.9556,China,CN,Shandong,,1378900
511,Milan,Milan,45.4669,9.19,Italy,IT,Lombardy,admin,1366180
512,Aurangābād,Aurangabad,19.88,75.32,India,IN,Mahārāshtra,,1371330
513,Yutan,Yutan,28.3147,112.554,China,CN,Hunan,minor,1368117
514,Milwaukee,Milwaukee,43.0642,-87.9673,United States,US,Wisconsin,,1365787
515,Huangshan,Huangshan,29.7132,118.3151,China,CN,Anhui,minor,1358980
516,Auckland,Auckland,-36.85,174.7833,New Zealand,NZ,Auckland,admin,1346091
517,Makassar,Makassar,-5.1331,119.4136,Indonesia,ID,Sulawesi Selatan,admin,1338663
518,Santiago,Santiago,19.45,-70.7,Dominican Republic,DO,Cibao Norte,admin,1343423
519,Prague,Prague,50.0833,14.4167,Czechia,CZ,"Praha, Hlavní Město",primary,1335084
520,Rājkot,Rajkot,22.2969,70.7984,India,IN,Gujarāt,,1335397
521,Liangshi,Liangshi,27.2578,111.7351,China,CN,Hunan,,1335900
522,Córdoba,Cordoba,-31.4167,-64.1833,Argentina,AR,Córdoba,admin,1329604
523,Guarulhos,Guarulhos,-23.4667,-46.5333,Brazil,BR,São Paulo,,1324781
524,Al Başrah,Al Basrah,30.515,47.81,Iraq,IQ,Al Başrah,admin,1326564
525,Saitama,Saitama,35.8617,139.6453,Japan,JP,Saitama,admin,1320571
526,Juárez,Juarez,31.7386,-106.487,Mexico,MX,Chihuahua,minor,1321004
527,Montevideo,Montevideo,-34.8667,-56.1667,Uruguay,UY,Montevideo,primary,1319108
528,Xintai,Xintai,35.91,117.78,China,CN,Shandong,,1315942
529,Wusong,Wusong,30.9333,117.7667,China,CN,Anhui,minor,1311726
530,Meerut,Meerut,28.99,77.7,India,IN,Uttar Pradesh,,1305429
531,Yushu,Yushu,44.8249,126.5451,China,CN,Jilin,,1304436
532,Rongcheng,Rongcheng,26.2312,104.0966,China,CN,Yunnan,,1302891
533,Huazhou,Huazhou,21.654,110.6294,China,CN,Guangdong,,1302100
534,Yangquan,Yangquan,37.8576,113.5762,China,CN,Shanxi,minor,1300000
535,Adelaide,Adelaide,-34.9275,138.6,Australia,AU,South Australia,admin,1295714
536,Baishan,Baishan,41.9377,126.4179,China,CN,Jilin,minor,1296127
537,Dayan,Dayan,26.8808,100.2208,China,CN,Yunnan,,1296000
538,Haicheng,Haicheng,40.8523,122.7474,China,CN,Liaoning,minor,1293877
539,Jiangyin,Jiangyin,31.9087,120.2653,China,CN,Jiangsu,,1285785
540,Huaiyin,Huaiyin,33.5819,119.028,China,CN,Jiangsu,,1264000
541,Wuzhong,Wuzhong,37.9874,106.1919,China,CN,Ningxia,minor,1284000
542,Cacuaco,Cacuaco,-8.7833,13.3667,Angola,AO,Luanda,,1279488
543,Barranquilla,Barranquilla,10.9639,-74.7964,Colombia,CO,Atlántico,admin,1274250
544,Sofia,Sofia,42.6979,23.3217,Bulgaria,BG,Sofia-Grad,primary,1277411
545,Soweto,Soweto,-26.2678,27.8586,South Africa,ZA,Gauteng,,1271628
546,Jabalpur,Jabalpur,23.1667,79.9333,India,IN,Madhya Pradesh,,1267564
547,Rucheng,Rucheng,32.3852,120.5634,China,CN,Jiangsu,minor,1267066
548,Nizhniy Novgorod,Nizhniy Novgorod,56.3269,44.0075,Russia,RU,Nizhegorodskaya Oblast’,admin,1264075
549,Shaoyang,Shaoyang,32.9387,119.8404,China,CN,Jiangsu,minor,1253548
550,Dhanbād,Dhanbad,23.7928,86.435,India,IN,Jharkhand,,1246000
551,Comayagüela,Comayaguela,14.0833,-87.2167,Honduras,HN,Francisco Morazán,,1250000
552,Laiwu,Laiwu,36.1833,117.6667,China,CN,Shandong,,1248636
553,Sharjah,Sharjah,25.3575,55.3919,United Arab Emirates,AE,Ash Shāriqah,admin,1247749
554,Jingling,Jingling,30.6667,113.1667,China,CN,Hubei,,1247400
555,Kazan,Kazan,55.7908,49.1144,Russia,RU,Tatarstan,admin,1243500
556,Suwon,Suwon,37.2858,127.01,South Korea,KR,Gyeonggi,admin,1234300
557,Yongcheng,Yongcheng,33.9317,116.4459,China,CN,Henan,,1240382
558,Calgary,Calgary,51.05,-114.0667,Canada,CA,Alberta,,1239220
559,Cần Thơ,Can Tho,10.0333,105.7833,Vietnam,VN,Cần Thơ,admin,1237300
560,Abuja,Abuja,9.0556,7.4914,Nigeria,NG,Federal Capital Territory,primary,1235880
561,Mandalay,Mandalay,21.9831,96.0844,Myanmar,MM,Mandalay,admin,1225546
562,Beidao,Beidao,34.602,105.918,China,CN,Gansu,minor,1225000
563,Xiangshui,Xiangshui,26.5964,104.8314,China,CN,Guizhou,,1221000
564,Dadukou,Dadukou,26.5849,101.7149,China,CN,Sichuan,minor,1214121
565,Vila Velha,Vila Velha,3.2167,-51.2167,Brazil,BR,Amapá,,1209091
566,Chelyabinsk,Chelyabinsk,55.15,61.4,Russia,RU,Chelyabinskaya Oblast’,admin,1202371
567,Mombasa,Mombasa,-4.05,39.6667,Kenya,KE,Mombasa,admin,1200000
568,Providence,Providence,41.823,-71.4187,United States,US,Rhode Island,admin,1203230
569,Vārānasi,Varanasi,25.3189,83.0128,India,IN,Uttar Pradesh,,1198491
570,Qom,Qom,34.64,50.8764,Iran,IR,Qom,admin,1201158
571,Zhangye,Zhangye,38.9355,100.4553,China,CN,Gansu,minor,1199515
572,Hiroshima,Hiroshima,34.4,132.45,Japan,JP,Hiroshima,admin,1198021
573,Maiduguri,Maiduguri,11.8333,13.15,Nigeria,NG,Borno,admin,1197497
574,Maputo,Maputo,-25.9153,32.5764,Mozambique,MZ,Maputo,primary,1191613
575,Doha,Doha,25.3,51.5333,Qatar,QA,Ad Dawḩah,primary,1186023
576,Rosario,Rosario,-32.9575,-60.6394,Argentina,AR,Santa Fe,minor,1193605
577,Pikine,Pikine,14.75,-17.4,Senegal,SN,Dakar,,1170791
578,Xinyu,Xinyu,27.795,114.9242,China,CN,Jiangxi,minor,1186700
579,Ahvāz,Ahvaz,31.3203,48.6692,Iran,IR,Khūzestān,admin,1184788
580,Jacksonville,Jacksonville,30.3322,-81.6749,United States,US,Florida,,1181496
581,Medina,Medina,24.4667,39.6,Saudi Arabia,SA,Al Madīnah al Munawwarah,admin,1180770
582,Srīnagar,Srinagar,34.0911,74.8061,India,IN,Jammu and Kashmīr,admin,1180570
583,Omsk,Omsk,54.9667,73.3833,Russia,RU,Omskaya Oblast’,admin,1178391
584,Liaoyuan,Liaoyuan,42.8976,125.1381,China,CN,Jilin,,1176239
585,Cilacap,Cilacap,-7.7167,109.017,Indonesia,ID,Jawa Tengah,minor,1174964
586,Yingtan,Yingtan,28.2333,117.0,China,CN,Jiangxi,,1175000
587,Bandar Lampung,Bandar Lampung,-5.4294,105.2625,Indonesia,ID,Lampung,admin,1166761
588,Samara,Samara,53.1833,50.1167,Russia,RU,Samarskaya Oblast’,admin,1169719
589,Guankou,Guankou,28.2363,113.6984,China,CN,Hunan,minor,1168056
590,Ulsan,Ulsan,35.55,129.3167,South Korea,KR,Ulsan,admin,1166033
591,Dingzhou,Dingzhou,38.5158,114.9845,China,CN,Hebei,,1165182
592,Campinas,Campinas,-22.9009,-47.0573,Brazil,BR,São Paulo,,1164098
593,Lianyuan,Lianyuan,27.6961,111.6659,China,CN,Hunan,minor,1162928
594,Dakar,Dakar,14.7319,-17.4572,Senegal,SN,Dakar,primary,1146053
595,Rongcheng,Rongcheng,29.8239,112.9019,China,CN,Hubei,minor,1162770
596,Kaiyuan,Kaiyuan,36.0656,113.8153,China,CN,Henan,minor,1160000
597,Nay Pyi Taw,Nay Pyi Taw,19.7475,96.115,Myanmar,MM,Nay Pyi Taw,primary,1160242
598,Kigali,Kigali,-1.9536,30.0606,Rwanda,RW,Kigali,primary,1156663
599,Leiyang,Leiyang,26.4179,112.8457,China,CN,Hunan,minor,1151554
600,Yichun,Yichun,47.7235,128.8893,China,CN,Heilongjiang,minor,1148126
601,Benin City,Benin City,6.3176,5.6145,Nigeria,NG,Edo,admin,1147188
602,Birmingham,Birmingham,52.48,-1.9025,United Kingdom,GB,Birmingham,,1137100
603,Xiantao,Xiantao,30.3833,113.4,China,CN,Hubei,,1140100
604,Amritsar,Amritsar,31.6269,74.877,India,IN,Punjab,,1132383
605,Callao,Callao,-12.0611,-77.1333,Peru,PE,Callao,admin,1129854
606,Monterrey,Monterrey,25.6667,-100.3,Mexico,MX,Nuevo León,admin,1135512
607,Alīgarh,Aligarh,27.88,78.08,India,IN,Uttar Pradesh,,1131160
608,Yingchuan,Yingchuan,34.1511,113.4733,China,CN,Henan,minor,1131896
609,Ciudad Nezahualcóyotl,Ciudad Nezahualcoyotl,19.41,-99.03,Mexico,MX,México,,1109363
610,Tripoli,Tripoli,32.8752,13.1875,Libya,LY,Ţarābulus,primary,1126000
611,Nampo,Nampo,38.7689,125.4505,North Korea,KP,P’yŏngnam,,1127000
612,Rostov,Rostov,47.2333,39.7167,Russia,RU,Rostovskaya Oblast’,admin,1125299
613,Tegucigalpa,Tegucigalpa,14.0942,-87.2067,Honduras,HN,Francisco Morazán,primary,1126534
614,Tbilisi,Tbilisi,41.7225,44.7925,Georgia,GE,Tbilisi,primary,1118035
615,Guwāhāti,Guwahati,26.1722,91.7458,India,IN,Assam,,1116267
616,Ufa,Ufa,54.7261,55.9475,Russia,RU,Bashkortostan,admin,1115560
617,Fès,Fes,34.0433,-5.0033,Morocco,MA,Fès-Meknès,admin,1112072
618,Biên Hòa,Bien Hoa,10.9508,106.8221,Vietnam,VN,Đồng Nai,admin,1104000
619,N’Djamena,N'Djamena,12.11,15.05,Chad,TD,Ville de N’Djaména,primary,1092066
620,Ikare,Ikare,7.5304,5.76,Nigeria,NG,Ondo,minor,1099931
621,Salt Lake City,Salt Lake City,40.7777,-111.9306,United States,US,Utah,admin,1098526
622,Bhilai,Bhilai,21.2186,81.4314,India,IN,Chhattīsgarh,,1097000
623,Hāora,Haora,22.5736,88.3251,India,IN,West Bengal,,1077075
624,Tamale,Tamale,9.4075,-0.8533,Ghana,GH,Northern,admin,1095808
625,Xibeijie,Xibeijie,39.737,98.5049,China,CN,Gansu,minor,1095947
626,Copenhagen,Copenhagen,55.6805,12.5615,Denmark,DK,Hovedstaden,primary,1085000
627,Nezahualcóyotl,Nezahualcoyotl,19.4,-98.9889,Mexico,MX,México,minor,1077208
628,Hanchuan,Hanchuan,30.652,113.8274,China,CN,Hubei,,1092700
629,Gongzhuling,Gongzhuling,43.5036,124.8088,China,CN,Jilin,,1092692
630,Krasnoyarsk,Krasnoyarsk,56.0089,92.8719,Russia,RU,Krasnoyarskiy Kray,admin,1083865
631,Cologne,Cologne,50.9422,6.9578,Germany,DE,North Rhine-Westphalia,,1083498
632,Yicheng,Yicheng,31.3697,119.8239,China,CN,Jiangsu,minor,1082929
633,Zhufeng,Zhufeng,36.0,119.4167,China,CN,Shandong,,1081960
634,São Gonçalo,Sao Goncalo,-22.8269,-43.0539,Brazil,BR,Rio de Janeiro,,1077687
635,Nashville,Nashville,36.1715,-86.7843,United States,US,Tennessee,admin,1081903
636,Yerevan,Yerevan,40.1814,44.5144,Armenia,AM,Yerevan,primary,1075800
637,Nur-Sultan,Nur-Sultan,51.1333,71.4333,Kazakhstan,KZ,Astana,primary,1078362
638,Nouakchott,Nouakchott,18.0858,-15.9785,Mauritania,MR,,primary,1077169
639,Vereeniging,Vereeniging,-26.6736,27.9319,South Africa,ZA,Gauteng,,1074000
640,Richmond,Richmond,37.5295,-77.4756,United States,US,Virginia,admin,1075798
641,São Luís,Sao Luis,-2.53,-44.3028,Brazil,BR,Maranhão,admin,1073893
642,Rānchi,Ranchi,23.3556,85.3347,India,IN,Jharkhand,admin,1073440
643,San Pedro Sula,San Pedro Sula,15.5,-88.0333,Honduras,HN,Cortés,admin,1073824
644,Taixing,Taixing,32.1724,120.0142,China,CN,Jiangsu,minor,1073921
645,Gwalior,Gwalior,26.215,78.1931,India,IN,Madhya Pradesh,,1069276
646,Memphis,Memphis,35.1046,-89.9773,United States,US,Tennessee,,1066967
647,Goyang,Goyang,37.6564,126.835,South Korea,KR,Gyeonggi,minor,1061929
648,Bezwāda,Bezwada,16.5167,80.6167,India,IN,Andhra Pradesh,,1048240
649,Edmonton,Edmonton,53.5344,-113.4903,Canada,CA,Alberta,admin,1062643
650,Bishkek,Bishkek,42.8667,74.5667,Kyrgyzstan,KG,Bishkek,primary,1053900
651,Mizhou,Mizhou,35.99,119.3801,China,CN,Shandong,minor,1060000
652,Tunis,Tunis,36.8008,10.18,Tunisia,TN,Tunis,primary,1056247
653,Xishan,Xishan,27.6609,113.4946,China,CN,Hunan,minor,1060000
654,Ezhou,Ezhou,30.3972,114.8842,China,CN,Hubei,minor,1059700
655,Barquisimeto,Barquisimeto,10.0678,-69.3467,Venezuela,VE,Lara,admin,1059092
656,Sendai,Sendai,38.2683,140.8694,Japan,JP,Miyagi,admin,1058070
657,Hegang,Hegang,47.3139,130.2775,China,CN,Heilongjiang,minor,1058665
658,Kathmandu,Kathmandu,27.7167,85.3667,Nepal,NP,Bāgmatī,primary,975453
659,Mexicali,Mexicali,32.6633,-115.4678,Mexico,MX,Baja California,admin,1049792
660,Voronezh,Voronezh,51.6717,39.2106,Russia,RU,Voronezhskaya Oblast’,admin,1047549
661,Perm,Perm,58.0139,56.2489,Russia,RU,Permskiy Kray,admin,1048005
662,Changwon,Changwon,35.2281,128.6811,South Korea,KR,Gyeongnam,admin,1046054
663,Zhongwei,Zhongwei,37.5139,105.1884,China,CN,Ningxia,minor,1046000
664,Shouguang,Shouguang,36.8833,118.7333,China,CN,Shandong,,1039205
665,Bogor,Bogor,-6.5917,106.8,Indonesia,ID,Jawa Barat,,1030720
666,Raleigh,Raleigh,35.8325,-78.6435,United States,US,North Carolina,admin,1038738
667,Cartagena,Cartagena,10.4236,-75.5253,Colombia,CO,Bolívar,admin,1036412
668,Chandīgarh,Chandigarh,30.7353,76.7911,India,IN,Chandīgarh,admin,1026459
669,Matola,Matola,-25.9667,32.4667,Mozambique,MZ,Maputo,,1032197
670,Jodhpur,Jodhpur,26.2944,73.0278,India,IN,Rājasthān,,1033918
671,Ogbomoso,Ogbomoso,8.1333,4.25,Nigeria,NG,Oyo,minor,1032000
672,Shymkent,Shymkent,42.3,69.6,Kazakhstan,KZ,Ongtüstik Qazaqstan,admin,1028673
673,Niamey,Niamey,13.5086,2.1111,Niger,NE,Niamey,primary,1026848
674,Taizhou,Taizhou,28.6583,121.4221,China,CN,Zhejiang,minor,1030200
675,Managua,Managua,12.15,-86.2667,Nicaragua,NI,Managua,primary,1028808
676,Bagam,Bagam,1.0678,104.0167,Indonesia,ID,Kepulauan Riau,,1029808
677,Shubrā al Khaymah,Shubra al Khaymah,30.1286,31.2422,Egypt,EG,Al Qalyūbīyah,,1025569
678,Maceió,Maceio,-9.6658,-35.735,Brazil,BR,Alagoas,admin,1025360
679,Monrovia,Monrovia,6.3106,-10.8047,Liberia,LR,Montserrado,primary,1021762
680,Wafangdian,Wafangdian,39.6271,121.9972,China,CN,Liaoning,,1024876
681,Zhongxiang,Zhongxiang,31.169,112.5853,China,CN,Hubei,,1022514
682,Odesa,Odesa,46.4775,30.7326,Ukraine,UA,Odes’ka Oblast’,admin,1017699
683,Port-au-Prince,Port-au-Prince,18.5425,-72.3386,Haiti,HT,Ouest,primary,987310
684,New Orleans,New Orleans,30.0687,-89.9288,United States,US,Louisiana,,1020886
685,Villahermosa,Villahermosa,17.9892,-92.9281,Mexico,MX,Tabasco,admin,1013484
686,Thủ Đức,Thu Duc,10.7924,106.7518,Vietnam,VN,Hồ Chí Minh,minor,1013795
687,Volgograd,Volgograd,48.7086,44.5147,Russia,RU,Volgogradskaya Oblast’,admin,1015586
688,Mysore,Mysore,12.3086,76.6531,India,IN,Karnātaka,,1014227
689,Islamabad,Islamabad,33.6989,73.0369,Pakistan,PK,Islāmābād,primary,1014825
690,Xinyi,Xinyi,22.3559,110.9369,China,CN,Guangdong,,1013900
691,Raipur,Raipur,21.2379,81.6337,India,IN,Chhattīsgarh,admin,1010087
692,Arequipa,Arequipa,-16.3988,-71.5369,Peru,PE,Arequipa,admin,1008290
693,Port Harcourt,Port Harcourt,4.75,7.0,Nigeria,NG,Rivers,admin,1005904
694,Louisville,Louisville,38.1663,-85.6485,United States,US,Kentucky,,1005654
695,Zaoyang,Zaoyang,32.1287,112.7581,China,CN,Hubei,,1004741
696,Shuizhai,Shuizhai,33.4433,114.8994,China,CN,Henan,,1003698
697,Xingyi,Xingyi,25.091,104.9011,China,CN,Guizhou,,1004132
698,Kota,Kota,25.18,75.83,India,IN,Rājasthān,,1001694
699,Quetta,Quetta,30.192,67.007,Pakistan,PK,Balochistān,admin,1001205
700,Ottawa,Ottawa,45.4247,-75.695,Canada,CA,Ontario,primary,989567
701,Stockholm,Stockholm,59.3294,18.0686,Sweden,SE,Stockholm,primary,975819
702,Asmara,Asmara,15.3333,38.9167,Eritrea,ER,Ma’ākel,primary,963000
703,Freetown,Freetown,8.4833,-13.2331,Sierra Leone,SL,Western Area,primary,951000
704,Vientiane,Vientiane,17.9667,102.6,Laos,LA,Viangchan,primary,948487
705,Jerusalem,Jerusalem,31.7833,35.2167,Israel,IL,Jerusalem,primary,919438
706,Bangui,Bangui,4.3732,18.5628,Central African Republic,CF,Bangui,primary,889231
707,Panama City,Panama City,9.0,-79.5,Panama,PA,Panamá,primary,880691
708,Amsterdam,Amsterdam,52.3667,4.8833,Netherlands,NL,Noord-Holland,primary,862965
709,Lomé,Lome,6.1319,1.2228,Togo,TG,Maritime,primary,837437
710,Libreville,Libreville,0.3901,9.4544,Gabon,GA,Estuaire,primary,797003
711,Zagreb,Zagreb,45.8131,15.9772,Croatia,HR,"Zagreb, Grad",primary,790017
712,Dushanbe,Dushanbe,38.5731,68.7864,Tajikistan,TJ,Dushanbe,primary,778500
713,Lilongwe,Lilongwe,-13.9833,33.7833,Malawi,MW,Lilongwe,primary,781538
714,Cotonou,Cotonou,6.402,2.518,Benin,BJ,Littoral,primary,762000
715,Colombo,Colombo,6.9167,79.8333,Sri Lanka,LK,Western,primary,752993
716,Pretoria,Pretoria,-25.7464,28.1881,South Africa,ZA,Gauteng,primary,741651
717,Winnipeg,Winnipeg,49.8844,-97.1464,Canada,CA,Manitoba,admin,705244
718,Quebec City,Quebec City,46.8139,-71.2081,Canada,CA,Quebec,admin,705103
719,Oslo,Oslo,59.9111,10.7528,Norway,NO,Oslo,primary,693494
720,Athens,Athens,37.9842,23.7281,Greece,GR,Attikí,primary,664046
721,Bujumbura,Bujumbura,-3.3825,29.3611,Burundi,BI,Bujumbura Mairie,primary,658859
722,Helsinki,Helsinki,60.1756,24.9342,Finland,FI,Uusimaa,primary,642045
723,Skopje,Skopje,41.9833,21.4333,Macedonia,MK,Skopje,primary,640000
724,Chisinau,Chisinau,47.0228,28.8353,Moldova,MD,Chişinău,primary,639000
725,Riga,Riga,56.9475,24.1069,Latvia,LV,Rīga,primary,614618
726,Kingston,Kingston,17.9714,-76.7931,Jamaica,JM,Kingston,primary,580000
727,Rabat,Rabat,34.0253,-6.8361,Morocco,MA,Rabat-Salé-Kénitra,primary,572717
728,Vilnius,Vilnius,54.6833,25.2833,Lithuania,LT,Vilniaus Miestas,primary,574147
729,San Salvador,San Salvador,13.6989,-89.1914,El Salvador,SV,San Salvador,primary,567698
730,Djibouti,Djibouti,11.595,43.1481,Djibouti,DJ,Djibouti,primary,562000
731,Dublin,Dublin,53.3497,-6.2603,Ireland,IE,Dublin,primary,553165
732,The Hague,The Hague,52.08,4.31,Netherlands,NL,Zuid-Holland,primary,537833
733,Asunción,Asuncion,-25.3,-57.6333,Paraguay,PY,Asunción,primary,524190
734,Lisbon,Lisbon,38.708,-9.139,Portugal,PT,Lisboa,primary,506654
735,Bratislava,Bratislava,48.1447,17.1128,Slovakia,SK,Bratislavský,primary,475503
736,Kitchener,Kitchener,43.4186,-80.4728,Canada,CA,Ontario,,470015
737,Tallinn,Tallinn,59.4372,24.745,Estonia,EE,Harjumaa,primary,438341
738,Beirut,Beirut,33.8869,35.5131,Lebanon,LB,Beyrouth,primary,361366
739,Cape Town,Cape Town,-33.925,18.425,South Africa,ZA,Western Cape,primary,433688
740,Tirana,Tirana,41.33,19.82,Albania,AL,Tiranë,primary,418495
741,Wellington,Wellington,-41.2889,174.7772,New Zealand,NZ,Wellington,primary,418500
742,Dodoma,Dodoma,-6.1835,35.746,Tanzania,TZ,Dodoma,primary,410956
743,Halifax,Halifax,44.6475,-63.5906,Canada,CA,Nova Scotia,admin,403131
744,Bissau,Bissau,11.8592,-15.5956,Guinea-Bissau,GW,Bissau,primary,395954
745,Canberra,Canberra,-35.2931,149.1269,Australia,AU,Australian Capital Territory,primary,381488
746,Juba,Juba,4.85,31.6,South Sudan,SS,Central Equatoria,primary,372410
747,Yamoussoukro,Yamoussoukro,6.8161,-5.2742,Côte d'Ivoire,CI,Yamoussoukro,primary,355573
748,Victoria,Victoria,48.4283,-123.3647,Canada,CA,British Columbia,admin,335696
749,Maseru,Maseru,-29.31,27.48,Lesotho,LS,Maseru,primary,330790
750,Nicosia,Nicosia,35.1725,33.365,Cyprus,CY,Lefkosía,primary,330000
751,Windhoek,Windhoek,-22.57,17.0836,Namibia,,Khomas,primary,322500
752,Port Moresby,Port Moresby,-9.4789,147.1494,Papua New Guinea,PG,National Capital,primary,317374
753,Porto-Novo,Porto-Novo,6.4833,2.6167,Benin,BJ,Ouémé,primary,300000
754,Sucre,Sucre,-19.0431,-65.2592,Bolivia,BO,Chuquisaca,primary,300000
755,San José,San Jose,9.9333,-84.0833,Costa Rica,CR,San José,primary,288054
756,Ljubljana,Ljubljana,46.05,14.5167,Slovenia,SI,Ljubljana,primary,286745
757,Sarajevo,Sarajevo,43.8563,18.4132,Bosnia And Herzegovina,BA,"Bosnia and Herzegovina, Federation of",primary,275524
758,Nassau,Nassau,25.0667,-77.3333,The Bahamas,BS,,primary,274400
759,Bloemfontein,Bloemfontein,-29.1,26.2167,South Africa,ZA,Free State,primary,256185
760,Fort-de-France,Fort-de-France,14.6104,-61.08,Martinique,MQ,,primary,253995
761,New Delhi,New Delhi,28.6139,77.209,India,IN,Delhi,primary,249998
762,Gaborone,Gaborone,-24.6569,25.9086,Botswana,BW,Gaborone,primary,231626
763,Paramaribo,Paramaribo,5.8667,-55.1667,Suriname,SR,Paramaribo,primary,223757
764,Dili,Dili,-8.5536,125.5783,Timor-Leste,TL,Díli,primary,222323
765,Male,Male,4.175,73.5083,Maldives,MV,Maale,primary,133019
766,Georgetown,Georgetown,6.7833,-58.1667,Guyana,GY,Demerara-Mahaica,primary,200500
767,Gibraltar,Gibraltar,36.1324,-5.3781,Gibraltar,GI,,primary,187083
768,Saint-Denis,Saint-Denis,-20.8789,55.4481,Reunion,RE,,primary,190047
769,Malabo,Malabo,3.7521,8.7737,Equatorial Guinea,GQ,Bioko Norte,primary,187302
770,Podgorica,Podgorica,42.4397,19.2661,Montenegro,ME,Podgorica,primary,174515
771,Manama,Manama,26.225,50.5775,Bahrain,BH,Al ‘Āşimah,primary,157474
772,Port Louis,Port Louis,-20.1667,57.5,Mauritius,MU,Port Louis,primary,149194
773,Willemstad,Willemstad,12.108,-68.935,Curaçao,CW,,primary,150000
774,Bern,Bern,46.948,7.4474,Switzerland,CH,Bern,primary,133798
775,Papeete,Papeete,-17.5334,-149.5667,French Polynesia,PF,Îles du Vent,primary,131695
776,Luxembourg,Luxembourg,49.6106,6.1328,Luxembourg,LU,Luxembourg,primary,128512
777,Reykjavík,Reykjavik,64.1475,-21.935,Iceland,IS,,primary,128793
778,Praia,Praia,14.9177,-23.5092,Cabo Verde,CV,Praia,primary,127832
779,Sri Jayewardenepura Kotte,Sri Jayewardenepura Kotte,6.9,79.9164,Sri Lanka,LK,Western,primary,115826
780,Bridgetown,Bridgetown,13.0975,-59.6167,Barbados,BB,Saint Michael,primary,110000
781,Moroni,Moroni,-11.7036,43.2536,Comoros,KM,Grande Comore,primary,111329
782,Thimphu,Thimphu,27.4833,89.6333,Bhutan,BT,Thimphu,primary,104000
783,Mbabane,Mbabane,-26.3208,31.1617,Swaziland,SZ,Hhohho,primary,94874
784,Nouméa,Noumea,-22.2625,166.4443,New Caledonia,NC,Province Sud,primary,93060
785,Honiara,Honiara,-9.4333,159.95,Solomon Islands,SB,Honiara,primary,84520
786,Suva,Suva,-18.1333,178.4333,Fiji,FJ,Rewa,primary,88271
787,Ankara,Ankara,39.93,32.85,Turkey,TR,Ankara,primary,77168
788,Castries,Castries,14.0167,-60.9833,Saint Lucia,LC,Castries,primary,70000
789,Cayenne,Cayenne,4.933,-52.33,French Guiana,GF,,primary,61550
790,São Tomé,Sao Tome,0.3333,6.7333,Sao Tome And Principe,ST,São Tomé,primary,56166
791,Port-Vila,Port-Vila,-17.7333,168.3167,Vanuatu,VU,Shefa,primary,51437
792,Hamilton,Hamilton,32.2942,-64.7839,Bermuda,BM,Hamilton,primary,52320
793,Bandar Seri Begawan,Bandar Seri Begawan,4.9167,114.9167,Brunei,BN,Brunei and Muara,primary,50000
794,Monaco,Monaco,43.7396,7.4069,Monaco,MC,,primary,36371
795,Gitega,Gitega,-3.4283,29.925,Burundi,BI,Gitega,primary,41944
796,Port of Spain,Port of Spain,10.6667,-61.5167,Trinidad And Tobago,TT,Port of Spain,primary,37074
797,Apia,Apia,-13.8333,-171.8333,Samoa,WS,Tuamasaga,primary,37708
798,Tarawa,Tarawa,1.3382,173.0176,Kiribati,KI,,primary,28802
799,Oranjestad,Oranjestad,12.5186,-70.0358,Aruba,AW,,primary,34980
800,Saint Helier,Saint Helier,49.1858,-2.11,Jersey,JE,,primary,33522
801,Banjul,Banjul,13.4531,-16.5775,The Gambia,GM,Banjul,primary,31356
802,Mamoudzou,Mamoudzou,-12.7871,45.275,Mayotte,YT,,primary,32057
803,Majuro,Majuro,7.0918,171.3802,Marshall Islands,MH,Majuro,primary,30000
804,Douglas,Douglas,54.15,-4.4819,Isle Of Man,IM,,primary,27938
805,George Town,George Town,19.2866,-81.3744,Cayman Islands,KY,,primary,27704
806,Victoria,Victoria,-4.6236,55.4544,Seychelles,SC,English River,primary,26450
807,Kingstown,Kingstown,13.1667,-61.2333,Saint Vincent And The Grenadines,VC,Saint George,primary,25000
808,Andorra la Vella,Andorra la Vella,42.5,1.5,Andorra,AD,Andorra la Vella,primary,22615
809,Saint John’s,Saint John's,17.1211,-61.8447,Antigua And Barbuda,AG,Saint John,primary,21926
810,Nuku‘alofa,Nuku`alofa,-21.1347,-175.2083,Tonga,TO,Tongatapu,primary,23221
811,Ashgabat,Ashgabat,37.95,58.3833,Turkmenistan,TM,Ahal,primary,19426
812,Nuuk,Nuuk,64.175,-51.7333,Greenland,GL,Sermersooq,primary,18326
813,Belmopan,Belmopan,17.25,-88.7675,Belize,BZ,Cayo,primary,17222
814,Roseau,Roseau,15.3,-61.3833,Dominica,DM,Saint George,primary,16582
815,Basseterre,Basseterre,17.2983,-62.7342,Saint Kitts And Nevis,KN,Saint George Basseterre,primary,13220
816,Tórshavn,Torshavn,62.0,-6.7833,Faroe Islands,FO,,primary,13326
817,Pago Pago,Pago Pago,-14.274,-170.7046,American Samoa,AS,,primary,12576
818,Valletta,Valletta,35.8978,14.5125,Malta,MT,Valletta,primary,6444
819,Gaza,Gaza,31.5069,34.456,Gaza Strip,XG,,primary,0
820,Grand Turk,Grand Turk,21.4664,-71.136,Turks And Caicos Islands,TC,,primary,5801
821,Palikir,Palikir,6.9178,158.185,Federated States of Micronesia,FM,Pohnpei,primary,6227
822,Funafuti,Funafuti,-8.5243,179.1942,Tuvalu,TV,Funafuti,primary,6025
823,Vaduz,Vaduz,47.1397,9.5219,Liechtenstein,LI,Vaduz,primary,5668
824,Lobamba,Lobamba,-26.4465,31.2064,Swaziland,SZ,Hhohho,primary,5800
825,Avarua,Avarua,-21.207,-159.771,Cook Islands,CK,,primary,5445
826,Saint George’s,Saint George's,12.0444,-61.7417,Grenada,GD,Saint George,primary,4315
827,San Marino,San Marino,43.932,12.4484,San Marino,SM,San Marino Città,primary,4040
828,Al Quds,Al Quds,31.7764,35.2269,West Bank,XW,,primary,0
829,Capitol Hill,Capitol Hill,15.2137,145.7546,Northern Mariana Islands,MP,,primary,2500
830,Stanley,Stanley,-51.7,-57.85,Falkland Islands (Islas Malvinas),FK,,primary,2213
831,Vatican City,Vatican City,41.9033,12.4534,Vatican City,VA,,primary,825
832,Alofi,Alofi,-19.056,-169.921,Niue,NU,,primary,1611
833,Basse-Terre,Basse-Terre,16.0104,-61.7055,Guadeloupe,GP,,primary,307
834,Hagåtña,Hagta,13.4745,144.7504,Guam,GU,,primary,1051
835,Marigot,Marigot,18.0706,-63.0847,Saint Martin,MF,,primary,0
836,Jamestown,Jamestown,-15.9251,-5.7179,"Saint Helena, Ascension, And Tristan Da Cunha",SH,Saint Helena,primary,714
837,Brades,Brades,16.7928,-62.2106,Montserrat,MS,Saint Peter,primary,391
838,Philipsburg,Philipsburg,18.0256,-63.0492,Sint Maarten,SX,,primary,0
839,Yaren,Yaren,-0.5477,166.9209,Nauru,NR,Yaren,primary,0
840,Pristina,Pristina,42.6633,21.1622,Kosovo,XK,Prishtinë,primary,0
841,Gustavia,Gustavia,17.8958,-62.8508,Saint Barthelemy,BL,,primary,0
842,Road Town,Road Town,18.4167,-64.6167,British Virgin Islands,VG,,primary,0
843,Ngerulmud,Ngerulmud,7.5006,134.6242,Palau,PW,Melekeok,primary,271
844,Saint-Pierre,Saint-Pierre,46.7811,-56.1764,Saint Pierre And Miquelon,PM,,primary,0
845,The Valley,The Valley,18.2167,-63.05,Anguilla,AI,,primary,0
846,Mata-Utu,Mata-Utu,-13.2825,-176.1736,Wallis And Futuna,WF,Uvea,primary,0
847,Kingston,Kingston,-29.0569,167.9617,Norfolk Island,NF,,primary,0
848,Longyearbyen,Longyearbyen,78.2167,15.6333,Svalbard,XR,,primary,0
849,Tifariti,Tifariti,26.0928,-10.6089,Morocco,MA,Laâyoune-Sakia El Hamra,primary,0
850,Adamstown,Adamstown,-25.0667,-130.0833,Pitcairn Islands,PN,,primary,0
851,Flying Fish Cove,Flying Fish Cove,-10.4167,105.7167,Christmas Island,CX,,primary,0
852,King Edward Point,King Edward Point,-54.2833,-36.5,South Georgia And South Sandwich Islands,GS,,primary,0
853,Bareilly,Bareilly,28.364,79.415,India,IN,Uttar Pradesh,,1000000
854,Quảng Hà,Quang Ha,16.06,108.25,Vietnam,VN,Quảng Nam,,1000000
855,Xingcheng,Xingcheng,24.1681,115.6669,China,CN,Guangdong,minor,993000
856,Dongtai,Dongtai,32.8534,120.3037,China,CN,Jiangsu,minor,990306
857,Al Manşūrah,Al Mansurah,31.05,31.3833,Egypt,EG,Ad Daqahlīyah,admin,960423
858,Yingcheng,Yingcheng,24.1878,113.4042,China,CN,Guangdong,minor,986400
859,Chiba,Chiba,35.6073,140.1064,Japan,JP,Chiba,admin,981738
860,Pekanbaru,Pekanbaru,0.5333,101.45,Indonesia,ID,Riau,admin,983356
861,Luocheng,Luocheng,22.7645,111.5745,China,CN,Guangdong,minor,984100
862,Dnipro,Dnipro,48.4675,35.04,Ukraine,UA,Dnipropetrovs’ka Oblast’,admin,980948
863,Danyang,Danyang,31.9948,119.575,China,CN,Jiangsu,,980662
864,Natal,Natal,-6.9838,-60.2699,Brazil,BR,Amazonas,,980588
865,Nada,Nada,19.5,109.5833,China,CN,Hainan,minor,977700
866,Zamboanga City,Zamboanga City,6.9167,122.0833,Philippines,PH,Zamboanga,admin,977234
867,Kirkuk,Kirkuk,35.4667,44.4,Iraq,IQ,Kirkūk,admin,975000
868,Naples,Naples,40.8333,14.25,Italy,IT,Campania,admin,966144
869,Wuchuan,Wuchuan,21.4283,110.7749,China,CN,Guangdong,,972400
870,Huilong,Huilong,31.8131,121.6574,China,CN,Jiangsu,minor,972525
871,Oklahoma City,Oklahoma City,35.4676,-97.5136,United States,US,Oklahoma,admin,972943
872,Morelia,Morelia,19.7683,-101.1894,Mexico,MX,Michoacán de Ocampo,,962555
873,Cebu City,Cebu City,10.293,123.902,Philippines,PH,Cebu,admin,964169
874,Shaoxing,Shaoxing,30.0,120.5833,China,CN,Zhejiang,minor,961200
875,Coimbatore,Coimbatore,11.0,76.9667,India,IN,Tamil Nādu,,959823
876,Santo Domingo Este,Santo Domingo Este,18.4855,-69.8734,Dominican Republic,DO,Ozama,admin,948855
877,Setagaya,Setagaya,35.6464,139.6533,Japan,JP,Tōkyō,,940509
878,Sŏngnam,Songnam,37.4386,127.1378,South Korea,KR,Gyeonggi,,948757
879,Taishan,Taishan,22.2486,112.785,China,CN,Guangdong,,953900
880,Fangchenggang,Fangchenggang,21.6,108.3,China,CN,Guangxi,minor,953300
881,Solāpur,Solapur,17.6715,75.9104,India,IN,Mahārāshtra,,951558
882,Tangier,Tangier,35.7767,-5.8039,Morocco,MA,Tanger-Tétouan-Al Hoceïma,admin,947952
883,Anqiu,Anqiu,36.3619,119.1072,China,CN,Shandong,,947723
884,Feicheng,Feicheng,36.186,116.772,China,CN,Shandong,,946627
885,Kermānshāh,Kermanshah,34.3167,47.0686,Iran,IR,Kermānshāh,admin,945651
886,Kitakyūshū,Kitakyushu,33.8833,130.8833,Japan,JP,Fukuoka,,935084
887,Meishan,Meishan,34.1736,112.839,China,CN,Henan,minor,936000
888,Khartoum North,Khartoum North,15.6333,32.6333,Sudan,SD,Khartoum,,936349
889,Kisangani,Kisangani,0.5153,25.1911,Congo (Kinshasa),CD,Tshopo,admin,935977
890,Aguascalientes,Aguascalientes,21.876,-102.296,Mexico,MX,Aguascalientes,admin,934424
891,Marrakech,Marrakech,31.6295,-7.9811,Morocco,MA,Marrakech-Safi,admin,928850
892,Donetsk,Donetsk,48.0089,37.8042,Ukraine,UA,Donets’ka Oblast’,admin,929063
893,Trujillo,Trujillo,-8.1119,-79.0289,Peru,PE,La Libertad,admin,919899
894,Taihe,Taihe,30.8706,105.3784,China,CN,Sichuan,minor,924531
895,Bridgeport,Bridgeport,41.1918,-73.1953,United States,US,Connecticut,,924449
896,Trichinopoly,Trichinopoly,10.8269,78.6928,India,IN,Tamil Nādu,,916857
897,Xin’an,Xin'an,34.3662,118.3369,China,CN,Jiangsu,,920628
898,Taihecun,Taihecun,45.768,131.0063,China,CN,Heilongjiang,minor,920471
899,Naucalpan de Juárez,Naucalpan de Juarez,19.4753,-99.2378,Mexico,MX,México,minor,913681
900,Owerri,Owerri,5.4833,7.0333,Nigeria,NG,Imo,admin,908109
901,Padang,Padang,-0.9556,100.3606,Indonesia,ID,Sumatera Barat,admin,914970
902,Qingzhou,Qingzhou,36.6967,118.4797,China,CN,Shandong,,914047
903,Buffalo,Buffalo,42.9016,-78.8487,United States,US,New York,,914341
904,Lichuan,Lichuan,30.2965,108.9378,China,CN,Hubei,,913700
905,Daye,Daye,30.1003,114.9699,China,CN,Hubei,,909724
906,Fort Worth,Fort Worth,32.7811,-97.3473,United States,US,Texas,,909585
907,Hengzhou,Hengzhou,22.6896,109.2674,China,CN,Guangxi,minor,908400
908,Campo Grande,Campo Grande,-20.4686,-54.6222,Brazil,BR,Mato Grosso do Sul,admin,906092
909,Zhuanghe,Zhuanghe,39.6896,122.9664,China,CN,Liaoning,,905852
910,Hartford,Hartford,41.7661,-72.6834,United States,US,Connecticut,admin,905152
911,Bobo-Dioulasso,Bobo-Dioulasso,11.1833,-4.2833,Burkina Faso,BF,Hauts-Bassins,admin,903887
912,Ad Dammām,Ad Dammam,26.4333,50.1,Saudi Arabia,SA,Ash Sharqīyah,admin,903312
913,Lhasa,Lhasa,29.6458,91.1408,China,CN,Tibet,admin,902500
914,Jiaozhou,Jiaozhou,36.2481,119.9625,China,CN,Shandong,,900500
915,Taguig City,Taguig City,14.5167,121.05,Philippines,PH,Taguig,admin,886722
916,Mérida,Merida,20.97,-89.62,Mexico,MX,Yucatán,admin,892363
917,Yangchun,Yangchun,22.1717,111.7846,China,CN,Guangdong,,891800
918,Bucheon,Bucheon,37.4989,126.7831,South Korea,KR,Gyeonggi,minor,867678
919,Dengtalu,Dengtalu,36.0819,114.3481,China,CN,Henan,minor,887000
920,Antipolo,Antipolo,14.5842,121.1763,Philippines,PH,Rizal,admin,887399
921,Hubli,Hubli,15.3619,75.1231,India,IN,Karnātaka,,890000
922,Abeokuta,Abeokuta,7.15,3.35,Nigeria,NG,Ogun,admin,888924
923,Cancún,Cancun,21.1606,-86.8475,Mexico,MX,Quintana Roo,minor,888797
924,Tucson,Tucson,32.1545,-110.8782,United States,US,Arizona,,888486
925,Krasnodar,Krasnodar,45.0333,38.9833,Russia,RU,Krasnodarskiy Kray,admin,881476
926,Natal,Natal,-5.795,-35.2089,Brazil,BR,Rio Grande do Norte,admin,877662
927,Chihuahua,Chihuahua,28.6353,-106.0889,Mexico,MX,Chihuahua,admin,878062
928,Klang,Klang,3.0333,101.45,Malaysia,MY,Selangor,,878000
929,Turin,Turin,45.0667,7.7,Italy,IT,Piedmont,admin,870952
930,Ar Ramādī,Ar Ramadi,33.4258,43.2992,Iraq,IQ,Al Anbār,admin,874543
931,Laiyang,Laiyang,36.9758,120.7136,China,CN,Shandong,,874127
932,Sale,Sale,34.05,-6.8167,Morocco,MA,Rabat-Salé-Kénitra,,850403
933,Jalandhar,Jalandhar,31.3256,75.5792,India,IN,Punjab,,873725
934,Kaifeng Chengguanzhen,Kaifeng Chengguanzhen,34.8519,114.3481,China,CN,Henan,minor,872000
935,Ikeja,Ikeja,6.6186,3.3426,Nigeria,NG,Lagos,admin,861300
936,Malang,Malang,-7.98,112.62,Indonesia,ID,Jawa Timur,,866118
937,Marseille,Marseille,43.2964,5.37,France,FR,Provence-Alpes-Côte d’Azur,admin,868277
938,Saltillo,Saltillo,25.4333,-101.0,Mexico,MX,Coahuila de Zaragoza,admin,864431
939,Gaomi,Gaomi,36.3833,119.75,China,CN,Shandong,,868715
940,Ipoh,Ipoh,4.6,101.07,Malaysia,MY,Perak,admin,866772
941,Hai’an,Hai'an,32.532,120.4604,China,CN,Jiangsu,minor,866337
942,Oran,Oran,35.6969,-0.6331,Algeria,DZ,Oran,admin,852000
943,Hermosillo,Hermosillo,29.0989,-110.9542,Mexico,MX,Sonora,admin,855563
944,Weichanglu,Weichanglu,37.1792,119.9333,China,CN,Shandong,minor,859424
945,Shache,Shache,38.4261,77.25,China,CN,Xinjiang,,851374
946,Leping,Leping,28.9632,117.1203,China,CN,Jiangxi,minor,852800
947,Hailun,Hailun,47.4585,126.9632,China,CN,Heilongjiang,minor,850000
948,Macheng,Macheng,31.1817,115.0189,China,CN,Hubei,,849090
949,Akure,Akure,7.25,5.195,Nigeria,NG,Ondo,admin,847903
950,Ilorin,Ilorin,8.5,4.55,Nigeria,NG,Kwara,admin,847582
951,Teresina,Teresina,-5.0949,-42.8042,Brazil,BR,Piauí,admin,847430
952,Yuci,Yuci,37.6823,112.7281,China,CN,Shanxi,,840000
953,Omaha,Omaha,41.2627,-96.0522,United States,US,Nebraska,,847819
954,Saratov,Saratov,51.5333,46.0,Russia,RU,Saratovskaya Oblast’,admin,845300
955,Erbil,Erbil,36.1911,44.0094,Iraq,IQ,Arbīl,admin,846000
956,Iguaçu,Iguacu,-22.74,-43.47,Brazil,BR,Rio de Janeiro,,844583
957,El Paso,El Paso,31.8479,-106.4309,United States,US,Texas,,843386
958,Pasig City,Pasig City,14.575,121.0833,Philippines,PH,Pasig,admin,803159
959,Denpasar,Denpasar,-8.6667,115.2167,Indonesia,ID,Bali,admin,834881
960,Dehui,Dehui,44.5323,125.6965,China,CN,Jilin,,839786
961,Bhubaneshwar,Bhubaneshwar,20.2644,85.8281,India,IN,Odisha,admin,837737
962,Tongchuan,Tongchuan,34.9057,108.9422,China,CN,Shaanxi,minor,834437
963,Cheongju,Cheongju,36.6372,127.4897,South Korea,KR,Chungbuk,admin,833276
964,Warri,Warri,5.5167,5.75,Nigeria,NG,Delta,minor,830106
965,Pointe-Noire,Pointe-Noire,-4.7889,11.8653,Congo (Brazzaville),CG,Pointe-Noire,admin,829134
966,Sakai,Sakai,34.5667,135.4833,Japan,JP,Ōsaka,,823523
967,Rongjiawan,Rongjiawan,29.1409,113.1087,China,CN,Hunan,minor,826000
968,Butterworth,Butterworth,5.3992,100.3639,Malaysia,MY,Pulau Pinang,,821652
969,Renqiu,Renqiu,38.7094,116.1008,China,CN,Hebei,,822455
970,Honolulu,Honolulu,21.3294,-157.846,United States,US,Hawaii,admin,820987
971,Xindi,Xindi,29.8182,113.4653,China,CN,Hubei,,819446
972,Wu’an,Wu'an,36.6941,114.1847,China,CN,Hebei,,819000
973,São Bernardo do Campo,Sao Bernardo do Campo,-23.6939,-46.565,Brazil,BR,São Paulo,,816925
974,Gaoyou,Gaoyou,32.7847,119.4432,China,CN,Jiangsu,minor,811800
975,Culiacán,Culiacan,24.8069,-107.3939,Mexico,MX,Sinaloa,admin,808416
976,Hejian,Hejian,38.4451,116.0897,China,CN,Hebei,,810306
977,Yiyang,Yiyang,26.4103,112.3913,China,CN,Hunan,minor,810447
978,Puxi,Puxi,35.2125,114.735,China,CN,Henan,minor,809535
979,Zijinglu,Zijinglu,34.7513,112.9854,China,CN,Henan,minor,807857
980,João Pessoa,Joao Pessoa,-7.12,-34.88,Brazil,BR,Paraíba,admin,801718
981,McAllen,McAllen,26.2273,-98.2471,United States,US,Texas,,804114
982,Querétaro,Queretaro,20.5875,-100.3928,Mexico,MX,Querétaro,admin,801940
983,Abaeté,Abaete,-19.1583,-45.4522,Brazil,BR,Minas Gerais,,800000
984,Palermo,Palermo,2.8883,-75.4339,Colombia,CO,Huila,minor,800000
985,Qingping,Qingping,34.538,113.3796,China,CN,Henan,minor,797200
986,Valencia,Valencia,39.47,-0.3764,Spain,ES,Valencia,admin,789744
987,Niigata,Niigata,37.9161,139.0364,Japan,JP,Niigata,admin,790646
988,Leeds,Leeds,53.7997,-1.5492,United Kingdom,GB,Leeds,,789194
989,Morādābād,Moradabad,28.8437,78.7548,India,IN,Uttar Pradesh,,787000
990,Hamamatsu,Hamamatsu,34.7167,137.7333,Japan,JP,Shizuoka,,788211
991,Xiangxiang,Xiangxiang,27.7389,112.5223,China,CN,Hunan,,787216
992,Chaohucun,Chaohucun,31.6783,117.7353,China,CN,Anhui,,782000
993,Fuyang,Fuyang,30.0553,119.95,China,CN,Zhejiang,minor,771000
994,Homs,Homs,34.7333,36.7167,Syria,SY,Ḩimş,admin,775404
995,Lubango,Lubango,-14.9167,13.5,Angola,AO,Huíla,admin,776249
996,San Luis Potosí,San Luis Potosi,22.1511,-100.9761,Mexico,MX,San Luis Potosí,admin,772828
997,Cencheng,Cencheng,22.9297,111.0186,China,CN,Guangxi,minor,772113
998,Dali,Dali,25.7003,100.1564,China,CN,Yunnan,,771128
999,Hamhŭng,Hamhung,39.9167,127.5333,North Korea,KP,Hamnam,admin,768551
1000,Kraków,Krakow,50.0614,19.9372,Poland,PL,Małopolskie,admin,766739
1001,Hempstead,Hempstead,40.6629,-73.6089,United States,US,New York,,767417
1002,Frankfurt,Frankfurt,50.1136,8.6797,Germany,DE,Hesse,minor,764104
1003,Al ‘Ayn,Al `Ayn,24.2075,55.7447,United Arab Emirates,AE,Abū Z̧aby,,766936
1004,Songzi,Songzi,30.1772,111.7732,China,CN,Hubei,,765911
1005,Laixi,Laixi,36.8667,120.5333,China,CN,Shandong,,762900
1006,Bahawalpur,Bahawalpur,29.3956,71.6722,Pakistan,PK,Punjab,minor,762111
1007,Zhongba,Zhongba,31.7761,104.7406,China,CN,Sichuan,minor,762140
1008,Kaduna,Kaduna,10.5105,7.4165,Nigeria,NG,Kaduna,admin,760084
1009,Qingnian,Qingnian,36.8494,115.7061,China,CN,Shandong,minor,760781
1010,Albuquerque,Albuquerque,35.1053,-106.6464,United States,US,New Mexico,,761195
1011,Xinhualu,Xinhualu,34.3962,113.7249,China,CN,Henan,minor,758079
1012,Nerima,Nerima,35.75,139.6167,Japan,JP,Tōkyō,,742463
1013,Guangshui,Guangshui,31.6189,113.8229,China,CN,Hubei,,755910
1014,Tlajomulco de Zúñiga,Tlajomulco de Zuniga,20.4736,-103.4431,Mexico,MX,Jalisco,minor,727750
1015,Samarinda,Samarinda,-0.5022,117.1536,Indonesia,ID,Kalimantan Timur,admin,753370
1016,Pietermaritzburg,Pietermaritzburg,-29.6009,30.3796,South Africa,ZA,KwaZulu-Natal,admin,750845
1017,Changhua,Changhua,24.0667,120.5333,Taiwan,TW,Changhua,admin,750000
1018,Kolhāpur,Kolhapur,16.7,74.2333,India,IN,Mahārāshtra,,750000
1019,Sizhan,Sizhan,39.0099,106.3694,China,CN,Ningxia,,751389
1020,Ciudad Guayana,Ciudad Guayana,8.3596,-62.6517,Venezuela,VE,Bolívar,minor,751331
1021,Cúcuta,Cucuta,7.9075,-72.5047,Colombia,CO,Norte de Santander,admin,750000
1022,Licheng,Licheng,31.4174,119.4786,China,CN,Jiangsu,minor,749522
1023,Ōta-ku,Ota-ku,35.5614,139.7161,Japan,JP,Tōkyō,,737187
1024,Thiruvananthapuram,Thiruvananthapuram,8.5,76.8997,India,IN,Kerala,admin,743691
1025,Tyumen,Tyumen,57.15,65.5333,Russia,RU,Tyumenskaya Oblast’,admin,744554
1026,Nampula,Nampula,-15.1167,39.2667,Mozambique,MZ,Nampula,admin,743000
1027,Zaporizhzhia,Zaporizhzhia,47.8378,35.1383,Ukraine,UA,Zaporiz’ka Oblast’,admin,741717
1028,Chengguan,Chengguan,35.5256,113.6976,China,CN,Henan,minor,740435
1029,Kumamoto,Kumamoto,32.8031,130.7078,Japan,JP,Kumamoto,admin,738385
1030,Nehe,Nehe,48.48,124.8738,China,CN,Heilongjiang,,740000
1031,Birmingham,Birmingham,33.5277,-86.7987,United States,US,Alabama,,739573
1032,Zunhua,Zunhua,40.1881,117.9593,China,CN,Hebei,minor,737011
1033,Valenzuela,Valenzuela,14.7,120.9833,Philippines,PH,Valenzuela,admin,714978
1034,Orūmīyeh,Orumiyeh,37.5486,45.0675,Iran,IR,Āz̄arbāyjān-e Gharbī,admin,736224
1035,Wugang,Wugang,26.7345,110.6293,China,CN,Hunan,,734870
1036,Osogbo,Osogbo,7.7597,4.5761,Nigeria,NG,Osun,admin,731000
1037,Shuangqiao,Shuangqiao,35.0833,112.5833,China,CN,Henan,minor,733000
1038,Comodoro Rivadavia,Comodoro Rivadavia,-45.8667,-67.5,Argentina,AR,Chubut,minor,730266
1039,Cagayan de Oro,Cagayan de Oro,8.4833,124.65,Philippines,PH,Cagayan de Oro,admin,728402
1040,Langzhong,Langzhong,31.5504,105.9938,China,CN,Sichuan,minor,728935
1041,Qian’an,Qian'an,40.0059,118.6973,China,CN,Hebei,,728160
1042,Lviv,Lviv,49.8419,24.0315,Ukraine,UA,L’vivs’ka Oblast’,admin,724314
1043,Zouping,Zouping,36.8625,117.7424,China,CN,Shandong,,726722
1044,An Najaf,An Najaf,32.029,44.3396,Iraq,IQ,An Najaf,admin,724700
1045,Sagamihara,Sagamihara,35.5667,139.3667,Japan,JP,Kanagawa,,722973
1046,Sarasota,Sarasota,27.3386,-82.5431,United States,US,Florida,,722243
1047,Mississauga,Mississauga,43.6,-79.65,Canada,CA,Ontario,,721599
1048,Okayama,Okayama,34.65,133.9167,Japan,JP,Okayama,admin,720043
1049,Anlu,Anlu,31.2575,113.6783,China,CN,Hubei,minor,720000
1050,Dayton,Dayton,39.7797,-84.1998,United States,US,Ohio,,718353
1051,Changsha,Changsha,22.3762,112.6877,China,CN,Guangdong,minor,717700
1052,Torreón,Torreon,25.5394,-103.4486,Mexico,MX,Coahuila de Zaragoza,minor,716672
1053,Shihezi,Shihezi,44.3,86.0333,China,CN,Xinjiang,minor,717000
1054,George Town,George Town,5.4145,100.3292,Malaysia,MY,Pulau Pinang,admin,708127
1055,Enugu,Enugu,6.4403,7.4942,Nigeria,NG,Enugu,admin,715774
1056,Soledad,Soledad,10.92,-74.77,Colombia,CO,Atlántico,minor,698852
1057,Jaboatão,Jaboatao,-8.1803,-35.0014,Brazil,BR,Pernambuco,,702621
1058,Yanggok,Yanggok,37.6367,127.2142,South Korea,KR,Gyeonggi,,713321
1059,Yatou,Yatou,37.1653,122.4867,China,CN,Shandong,minor,714211
1060,Santo André,Santo Andre,-23.6572,-46.5333,Brazil,BR,São Paulo,,710210
1061,Xichang,Xichang,27.8983,102.2706,China,CN,Sichuan,minor,712434
1062,Bhiwandi,Bhiwandi,19.3,73.0667,India,IN,Mahārāshtra,,709665
1063,City of Parañaque,City of Paranaque,14.4667,121.0167,Philippines,PH,Parañaque,admin,689992
1064,Dasmariñas,Dasmarinas,14.3294,120.9367,Philippines,PH,Cavite,,703141
1065,Chengxiang,Chengxiang,31.4515,121.1043,China,CN,Jiangsu,minor,709500
1066,Sahāranpur,Saharanpur,29.964,77.546,India,IN,Uttar Pradesh,,705478
1067,Warangal,Warangal,17.9756,79.6011,India,IN,Telangana,,704570
1068,Edogawa,Edogawa,35.6924,139.8757,Japan,JP,Chiba,,690457
1069,Osasco,Osasco,-23.5328,-46.7919,Brazil,BR,São Paulo,,694844
1070,Dashiqiao,Dashiqiao,40.6328,122.5021,China,CN,Liaoning,minor,704891
1071,Latakia,Latakia,35.5236,35.7917,Syria,SY,Al Lādhiqīyah,admin,700000
1072,Rochester,Rochester,43.168,-77.6162,United States,US,New York,,703952
1073,Fresno,Fresno,36.7831,-119.7941,United States,US,California,,703498
1074,Banjarmasin,Banjarmasin,-3.319,114.5921,Indonesia,ID,Kalimantan Selatan,admin,692793
1075,Salem,Salem,11.65,78.1667,India,IN,Tamil Nādu,,693236
1076,General Santos,General Santos,6.1167,125.1667,Philippines,PH,General Santos,admin,697315
1077,Ḩamāh,Hamah,35.1333,36.75,Syria,SY,Ḩamāh,admin,696863
1078,Bacoor,Bacoor,14.4624,120.9645,Philippines,PH,Cavite,,664625
1079,Shishi,Shishi,24.7355,118.6434,China,CN,Fujian,minor,693000
1080,Guadalupe,Guadalupe,25.6775,-100.2597,Mexico,MX,Nuevo León,minor,691931
1081,Adachi,Adachi,35.7833,139.8,Japan,JP,Tōkyō,,682326
1082,Qianxi,Qianxi,27.0284,106.0327,China,CN,Guizhou,,695947
1083,Tolyatti,Tolyatti,53.5167,49.4167,Russia,RU,Samarskaya Oblast’,,693072
1084,Macau,Macau,22.203,113.545,Macau,MO,,,568700
1085,Bauchi,Bauchi,10.3158,9.8442,Nigeria,NG,Bauchi,admin,693700
1086,Hamilton,Hamilton,43.2567,-79.8692,Canada,CA,Ontario,,693645
1087,Łódź,Lodz,51.7769,19.4547,Poland,PL,Łódzkie,admin,690422
1088,Miluo Chengguanzhen,Miluo Chengguanzhen,28.8049,113.0745,China,CN,Hunan,minor,692080
1089,Gaizhou,Gaizhou,40.4019,122.3499,China,CN,Liaoning,minor,691595
1090,Mālegaon,Malegaon,20.55,74.55,India,IN,Mahārāshtra,,690844
1091,Karbalā’,Karbala',32.6167,44.0333,Iraq,IQ,Karbalā’,admin,690100
1092,Leling,Leling,37.7333,117.2167,China,CN,Shandong,minor,689867
1093,São José dos Campos,Sao Jose dos Campos,-23.1789,-45.8869,Brazil,BR,São Paulo,,688597
1094,Sevilla,Sevilla,37.39,-5.99,Spain,ES,Andalusia,admin,684234
1095,Jianshe,Jianshe,34.2189,113.7693,China,CN,Henan,minor,687130
1096,Shizuoka,Shizuoka,34.9756,138.3825,Japan,JP,Shizuoka,admin,685589
1097,Jingcheng,Jingcheng,32.0058,120.2547,China,CN,Jiangsu,minor,684360
1098,Kochi,Kochi,9.9667,76.2833,India,IN,Kerala,,677381
1099,Allentown,Allentown,40.5961,-75.4756,United States,US,Pennsylvania,,683794
1100,Tasikmalaya,Tasikmalaya,-7.3333,108.2,Indonesia,ID,Jawa Barat,,678027
1101,Rasht,Rasht,37.2833,49.6,Iran,IR,Gīlān,admin,679995
1102,Xinmin,Xinmin,41.9952,122.8224,China,CN,Liaoning,,680000
1103,Zhongshu,Zhongshu,27.8116,106.4133,China,CN,Guizhou,,679624
1104,Xigazê,Xigaze,29.2649,88.8799,China,CN,Tibet,minor,679771
1105,Gorakhpur,Gorakhpur,26.7611,83.3667,India,IN,Uttar Pradesh,,673446
1106,As Sulaymānīyah,As Sulaymaniyah,35.55,45.4333,Iraq,IQ,As Sulaymānīyah,admin,676500
1107,Zaragoza,Zaragoza,41.65,-0.8833,Spain,ES,Aragon,admin,675301
1108,Acapulco de Juárez,Acapulco de Juarez,16.8636,-99.8825,Mexico,MX,Guerrero,minor,673478
1109,Bahār,Bahar,34.9069,48.4414,Iran,IR,Hamadān,minor,673405
1110,Palermo,Palermo,38.1111,13.3517,Italy,IT,Sicilia,admin,668405
1111,Guankou,Guankou,30.9933,103.624,China,CN,Sichuan,,671200
1112,Tulsa,Tulsa,36.1284,-95.9042,United States,US,Oklahoma,,671033
1113,Tlaquepaque,Tlaquepaque,20.6167,-103.3167,Mexico,MX,Jalisco,minor,664193
1114,Mazatlán,Mazatlan,23.2167,-106.4167,Mexico,MX,Sinaloa,minor,658354
1115,Songyang,Songyang,34.4603,113.028,China,CN,Henan,minor,668592
1116,Cape Coral,Cape Coral,26.6446,-81.9956,United States,US,Florida,,668382
1117,Ch’ŏngjin,Ch'ongjin,41.8,129.7831,North Korea,KP,Hambuk,minor,667929
1118,Puyang Chengguanzhen,Puyang Chengguanzhen,35.7004,114.98,China,CN,Henan,minor,666322
1119,Qionghu,Qionghu,28.8417,112.3595,China,CN,Hunan,minor,667104
1120,Ribeirão Prêto,Ribeirao Preto,-21.1783,-47.8067,Brazil,BR,São Paulo,,666323
1121,Zhaodong,Zhaodong,46.0635,125.9773,China,CN,Heilongjiang,minor,666532
1122,Huambo,Huambo,-12.7667,15.7333,Angola,AO,Huambo,admin,665564
1123,Wenchang,Wenchang,31.054,116.9507,China,CN,Anhui,minor,664455
1124,Shulan,Shulan,44.4079,126.9429,China,CN,Jilin,,663403
1125,Tlalnepantla,Tlalnepantla,19.5367,-99.1947,Mexico,MX,México,minor,653410
1126,Catia La Mar,Catia La Mar,10.6038,-67.0303,Venezuela,VE,Vargas,minor,661897
1127,Sargodha,Sargodha,32.0836,72.6711,Pakistan,PK,Punjab,minor,659862
1128,Al Hufūf,Al Hufuf,25.3608,49.5997,Saudi Arabia,SA,Ash Sharqīyah,,660788
1129,Durango,Durango,24.0167,-104.6667,Mexico,MX,Durango,admin,654876
1130,Jalingo,Jalingo,8.9195,11.3264,Nigeria,NG,Taraba,admin,660213
1131,Bouaké,Bouake,7.6833,-5.0331,Côte d'Ivoire,CI,Vallée du Bandama,admin,659233
1132,Sialkot City,Sialkot City,32.5,74.5333,Pakistan,PK,Punjab,minor,655852
1133,San Jose del Monte,San Jose del Monte,14.8139,121.0453,Philippines,PH,Bulacan,,651813
1134,Ansan,Ansan,37.3236,126.8219,South Korea,KR,Gyeonggi,,652800
1135,Lingbao Chengguanzhen,Lingbao Chengguanzhen,34.5221,110.8786,China,CN,Henan,minor,656571
1136,Hwasu-dong,Hwasu-dong,37.2,126.7667,South Korea,KR,Gyeonggi,,655350
1137,Huế,Hue,16.4637,107.5908,Vietnam,VN,Thừa Thiên-Huế,admin,652572
1138,Shimoga,Shimoga,13.9167,75.5667,India,IN,Karnātaka,,654055
1139,Bulawayo,Bulawayo,-20.1667,28.5667,Zimbabwe,ZW,Bulawayo,admin,653337
1140,Xiping,Xiping,25.6005,103.8166,China,CN,Yunnan,minor,652604
1141,Sanhe,Sanhe,39.9808,117.0701,China,CN,Hebei,,652042
1142,Guntūr,Guntur,16.3,80.45,India,IN,Andhra Pradesh,,647508
1143,Concord,Concord,37.9722,-122.0016,United States,US,California,,652308
1144,Contagem,Contagem,-19.9319,-44.0539,Brazil,BR,Minas Gerais,,648766
1145,Tiruppūr,Tiruppur,11.1075,77.3398,India,IN,Tamil Nādu,,650000
1146,Ch’ŏnan,Ch'onan,36.8064,127.1522,South Korea,KR,Chungnam,,651661
1147,Tripoli,Tripoli,34.4333,35.8333,Lebanon,LB,Liban-Nord,admin,530000
1148,Honchō,Honcho,35.6947,139.9825,Japan,JP,Chiba,,641499
1149,Düsseldorf,Dusseldorf,51.2311,6.7724,Germany,DE,North Rhine-Westphalia,admin,645923
1150,Izhevsk,Izhevsk,56.85,53.2167,Russia,RU,Udmurtiya,admin,646277
1151,Guixi,Guixi,28.2861,117.2083,China,CN,Jiangxi,minor,647240
1152,Sorocaba,Sorocaba,-23.5019,-47.4578,Brazil,BR,São Paulo,,644919
1153,Petaling Jaya,Petaling Jaya,3.1073,101.6067,Malaysia,MY,Selangor,,638516
1154,Tengyue,Tengyue,25.0208,98.4972,China,CN,Yunnan,minor,644765
1155,Wuxue,Wuxue,29.8518,115.5539,China,CN,Hubei,minor,644247
1156,Kikwit,Kikwit,-5.0333,18.8167,Congo (Kinshasa),CD,Kwilu,,637736
1157,Colorado Springs,Colorado Springs,38.8674,-104.7606,United States,US,Colorado,,642413
1158,Qufu,Qufu,35.6,116.9833,China,CN,Shandong,,640498
1159,Gaobeidian,Gaobeidian,39.3257,115.8678,China,CN,Hebei,,640280
1160,Ruiming,Ruiming,25.8833,116.0333,China,CN,Jiangxi,,640600
1161,Wrocław,Wroclaw,51.11,17.0325,Poland,PL,Dolnośląskie,admin,638586
1162,Gold Coast,Gold Coast,-28.0167,153.4,Australia,AU,Queensland,,638090
1163,Xinshi,Xinshi,31.0236,113.1079,China,CN,Hubei,minor,636776
1164,Ta‘izz,Ta`izz,13.5789,44.0219,Yemen,YE,Ta‘izz,admin,615467
1165,Aracaju,Aracaju,-10.9167,-37.05,Brazil,BR,Sergipe,admin,632744
1166,Cochabamba,Cochabamba,-17.3935,-66.157,Bolivia,BO,Cochabamba,admin,632013
1167,Jeonju,Jeonju,35.8219,127.1489,South Korea,KR,Jeonbuk,admin,631532
1168,Jin’e,Jin'e,29.3395,105.2868,China,CN,Sichuan,minor,633210
1169,Barnaul,Barnaul,53.3567,83.7872,Russia,RU,Altayskiy Kray,admin,633301
1170,Makati City,Makati City,14.55,121.0333,Philippines,PH,Makati,admin,629616
1171,Stuttgart,Stuttgart,48.7761,9.1775,Germany,DE,Baden-Württemberg,admin,630305
1172,Rotterdam,Rotterdam,51.9225,4.4792,Netherlands,NL,Zuid-Holland,minor,631155
1173,Changping,Changping,40.2248,116.1944,China,CN,Beijing,,614821
1174,Benghazi,Benghazi,32.1167,20.0667,Libya,LY,Banghāzī,admin,631555
1175,Kryvyi Rih,Kryvyi Rih,47.9086,33.3433,Ukraine,UA,Dnipropetrovs’ka Oblast’,minor,629695
1176,Raurkela,Raurkela,22.2492,84.8828,India,IN,Odisha,,625831
1177,Ḩalwān,Halwan,29.8419,31.3342,Egypt,EG,Al Qāhirah,,619293
1178,Charleston,Charleston,32.8153,-79.9628,United States,US,South Carolina,,628377
1179,Chimalhuacán,Chimalhuacan,19.4167,-98.9,Mexico,MX,México,minor,614453
1180,Xinxing,Xinxing,39.8734,124.1453,China,CN,Liaoning,minor,627475
1181,Suohe,Suohe,34.7879,113.392,China,CN,Henan,minor,626700
1182,Mangalore,Mangalore,12.8703,74.8806,India,IN,Karnātaka,,623841
1183,Zhuangyuan,Zhuangyuan,37.3056,120.8275,China,CN,Shandong,minor,626683
1184,Glasgow,Glasgow,55.8611,-4.25,United Kingdom,GB,Glasgow City,,626410
1185,Namangan,Namangan,40.9953,71.6725,Uzbekistan,UZ,Namangan,admin,626120
1186,Ulyanovsk,Ulyanovsk,54.3167,48.3667,Russia,RU,Ul’yanovskaya Oblast’,admin,624518
1187,Irkutsk,Irkutsk,52.2833,104.3,Russia,RU,Irkutskaya Oblast’,admin,623736
1188,Nānded,Nanded,19.17,77.3,India,IN,Mahārāshtra,,623708
1189,Jos,Jos,9.9333,8.8833,Nigeria,NG,Plateau,admin,622802
1190,Pontianak,Pontianak,-0.0206,109.3414,Indonesia,ID,Kalimantan Barat,admin,618388
1191,Villa Nueva,Villa Nueva,14.5314,-90.5964,Guatemala,GT,Guatemala,minor,618397
1192,Bazhou,Bazhou,39.1235,116.386,China,CN,Hebei,,622975
1193,Springfield,Springfield,42.1155,-72.5395,United States,US,Massachusetts,,623401
1194,Turpan,Turpan,42.95,89.1822,China,CN,Xinjiang,minor,622903
1195,Las Piñas City,Las Pinas City,14.45,120.9833,Philippines,PH,Las Piñas,,606293
1196,Meihekou,Meihekou,42.5279,125.678,China,CN,Jilin,minor,618251
1197,Jurong,Jurong,31.9579,119.1595,China,CN,Jiangsu,,617706
1198,Feira de Santana,Feira de Santana,-12.2669,-38.9669,Brazil,BR,Bahia,,617528
1199,Khabarovsk,Khabarovsk,48.4833,135.0667,Russia,RU,Khabarovskiy Kray,admin,616242
1200,Xinji,Xinji,37.9423,115.2118,China,CN,Hebei,,615919
1201,Serang,Serang,-6.12,106.1503,Indonesia,ID,Banten,admin,613356
1202,Kandahār,Kandahar,31.6078,65.7053,Afghanistan,AF,Kandahār,admin,614254
1203,Sanya,Sanya,18.2536,109.5019,China,CN,Hainan,minor,614647
1204,San Miguel de Tucumán,San Miguel de Tucuman,-26.8167,-65.2167,Argentina,AR,Tucumán,admin,605767
1205,Yaroslavl,Yaroslavl,57.6167,39.85,Russia,RU,Yaroslavskaya Oblast’,admin,608079
1206,Zhangshu,Zhangshu,28.0667,115.5375,China,CN,Jiangxi,,610424
1207,Bağcılar,Bagcilar,41.0406,28.8261,Turkey,TR,İstanbul,,556519
1208,Grand Rapids,Grand Rapids,42.962,-85.6562,United States,US,Michigan,,609314
1209,Vladivostok,Vladivostok,43.1167,131.9,Russia,RU,Primorskiy Kray,admin,606589
1210,Kuantan,Kuantan,3.8167,103.3333,Malaysia,MY,Pahang,admin,607778
1211,Gothenburg,Gothenburg,57.6717,11.981,Sweden,SE,Västra Götaland,admin,604829
1212,Cuttack,Cuttack,20.465,85.8793,India,IN,Odisha,,606007
1213,Jambi,Jambi,-1.59,103.61,Indonesia,ID,Jambi,admin,602187
1214,Cimahi,Cimahi,-6.8833,107.5333,Indonesia,ID,Jawa Barat,,586580
1215,Bacolod,Bacolod,10.6765,122.9509,Philippines,PH,Bacolod,admin,600783
1216,Zhuozhou,Zhuozhou,39.4887,115.9918,China,CN,Hebei,,603535
1217,Uberlândia,Uberlandia,-18.9189,-48.2769,Brazil,BR,Minas Gerais,,604013
1218,Tianchang,Tianchang,32.6853,119.0041,China,CN,Anhui,minor,602840
1219,Kawaguchi,Kawaguchi,35.8078,139.7242,Japan,JP,Saitama,,593353
1220,Itabashi,Itabashi,35.7667,139.6833,Japan,JP,Tōkyō,,581337
1221,Suginami-ku,Suginami-ku,35.6833,139.6167,Japan,JP,Tōkyō,,583609
1222,Tuxtla,Tuxtla,16.7528,-93.1167,Mexico,MX,Chiapas,admin,598710
1223,Tumkūr,Tumkur,13.3422,77.1017,India,IN,Karnātaka,,599078
1224,Leipzig,Leipzig,51.3333,12.3833,Germany,DE,Saxony,minor,597215
1225,Balikpapan,Balikpapan,-1.1489,116.9031,Indonesia,ID,Kalimantan Timur,,598043
1226,Qamdo,Qamdo,31.1375,97.1777,China,CN,Tibet,minor,598862
1227,Durban,Durban,-29.8583,31.025,South Africa,ZA,KwaZulu-Natal,,595061
1228,Chānda,Chanda,19.95,79.3,India,IN,Mahārāshtra,,595118
1229,Kagoshima,Kagoshima,31.58,130.5281,Japan,JP,Kagoshima,admin,593754
1230,Al Ḩillah,Al Hillah,23.4895,46.7564,Saudi Arabia,SA,Ar Riyāḑ,,594605
1231,Makhachkala,Makhachkala,42.9833,47.4833,Russia,RU,Dagestan,admin,592976
1232,Sihui,Sihui,23.3448,112.6956,China,CN,Guangdong,,593400
1233,Mar del Plata,Mar del Plata,-38.0,-57.55,Argentina,AR,Buenos Aires,minor,593337
1234,Irapuato,Irapuato,20.6667,-101.35,Mexico,MX,Guanajuato,minor,592953
1235,Brampton,Brampton,43.6833,-79.7667,Canada,CA,Ontario,,593638
1236,Luocheng,Luocheng,30.9793,104.28,China,CN,Sichuan,minor,591115
1237,Pereira,Pereira,4.8143,-75.6946,Colombia,CO,Risaralda,admin,590554
1238,Mission Viejo,Mission Viejo,33.6095,-117.655,United States,US,California,,590249
1239,Dortmund,Dortmund,51.5139,7.4653,Germany,DE,North Rhine-Westphalia,minor,587696
1240,Reynosa,Reynosa,26.0922,-98.2778,Mexico,MX,Tamaulipas,minor,589466
1241,Chuxiong,Chuxiong,25.0461,101.5436,China,CN,Yunnan,,588620
1242,Zāhedān,Zahedan,29.4833,60.8667,Iran,IR,Sīstān va Balūchestān,admin,587730
1243,Jinhua,Jinhua,29.1046,119.6494,China,CN,Zhejiang,minor,586000
1244,Albany,Albany,42.6664,-73.7987,United States,US,New York,admin,586383
1245,Shah Alam,Shah Alam,3.0833,101.5333,Malaysia,MY,Selangor,admin,584340
1246,Knoxville,Knoxville,35.9692,-83.9496,United States,US,Tennessee,,586048
1247,Cuiabá,Cuiaba,-15.5958,-56.0969,Brazil,BR,Mato Grosso,admin,585367
1248,Shangzhi,Shangzhi,45.2116,127.962,China,CN,Heilongjiang,minor,585386
1249,Essen,Essen,51.4508,7.0131,Germany,DE,North Rhine-Westphalia,minor,582415
1250,Botou,Botou,38.074,116.57,China,CN,Hebei,,584308
1251,Bucaramanga,Bucaramanga,7.1186,-73.1161,Colombia,CO,Santander,admin,581130
1252,Anyang,Anyang,37.3925,126.9269,South Korea,KR,Gyeonggi,,573296
1253,Genoa,Genoa,44.4072,8.934,Italy,IT,Liguria,admin,580097
1254,Port Sudan,Port Sudan,19.6158,37.2164,Sudan,SD,Red Sea,admin,579942
1255,Puente Alto,Puente Alto,-33.6167,-70.5833,Chile,CL,Región Metropolitana,minor,573935
1256,Dehra Dūn,Dehra Dun,30.318,78.029,India,IN,Uttarakhand,admin,578420
1257,Aţ Ţā’if,At Ta'if,21.2667,40.4167,Saudi Arabia,SA,Makkah al Mukarramah,,579970
1258,Bakersfield,Bakersfield,35.3529,-119.0359,United States,US,California,,579295
1259,Wancheng,Wancheng,18.8,110.4,China,CN,Hainan,minor,578600
1260,Málaga,Malaga,36.7194,-4.42,Spain,ES,Andalusia,minor,577405
1261,Hachiōji,Hachioji,35.6667,139.3167,Japan,JP,Tōkyō,,575721
1262,Ogden,Ogden,41.2278,-111.9682,United States,US,Utah,,578523
1263,Xiulin,Xiulin,29.7211,112.4037,China,CN,Hubei,,577022
1264,Fu’an,Fu'an,27.1,119.6333,China,CN,Fujian,minor,577000
1265,Tomsk,Tomsk,56.4886,84.9522,Russia,RU,Tomskaya Oblast’,admin,572740
1266,Tonalá,Tonala,20.6167,-103.2333,Mexico,MX,Jalisco,minor,569913
1267,Kumul,Kumul,42.8322,93.5155,China,CN,Xinjiang,minor,572400
1268,Bristol,Bristol,51.45,-2.5833,United Kingdom,GB,"Bristol, City of",,567111
1269,Luofeng,Luofeng,37.359,120.396,China,CN,Shandong,minor,570898
1270,Lingyuan,Lingyuan,41.2407,119.3957,China,CN,Liaoning,,570660
1271,Irbid,Irbid,32.5556,35.85,Jordan,JO,Irbid,admin,569068
1272,Baton Rouge,Baton Rouge,30.4418,-91.131,United States,US,Louisiana,admin,570308
1273,Huzhou,Huzhou,30.8695,120.0958,China,CN,Zhejiang,minor,569000
1274,Wencheng,Wencheng,19.6167,110.75,China,CN,Hainan,minor,568900
1275,Bremen,Bremen,53.0769,8.8089,Germany,DE,Bremen,admin,566573
1276,Ciudad Bolívar,Ciudad Bolivar,8.1167,-63.55,Venezuela,VE,Bolívar,admin,567953
1277,Durgāpur,Durgapur,23.55,87.32,India,IN,West Bengal,,566517
1278,Orenburg,Orenburg,51.7667,55.1,Russia,RU,Orenburgskaya Oblast’,admin,564443
1279,Shenzhou,Shenzhou,38.0005,115.5541,China,CN,Hebei,,566087
1280,Āsansol,Asansol,23.6833,86.9667,India,IN,West Bengal,,563917
1281,Akron,Akron,41.0798,-81.5219,United States,US,Ohio,,565208
1282,Kuiju,Kuiju,36.8528,119.3904,China,CN,Shandong,minor,564501
1283,New Haven,New Haven,41.3112,-72.9246,United States,US,Connecticut,,564830
1284,Zhenzhou,Zhenzhou,32.2739,119.1619,China,CN,Jiangsu,minor,564021
1285,Surakarta,Surakarta,-7.5667,110.8167,Indonesia,ID,Jawa Tengah,,552118
1286,Jieshou,Jieshou,33.2605,115.3618,China,CN,Anhui,,561956
1287,Benguela,Benguela,-12.55,13.4167,Angola,AO,Benguela,admin,561775
1288,Ensenada,Ensenada,31.8578,-116.6058,Mexico,MX,Baja California,minor,557430
1289,Dangyang,Dangyang,30.8258,111.791,China,CN,Hubei,,560000
1290,Columbia,Columbia,34.0376,-80.9037,United States,US,South Carolina,admin,560041
1291,Kemerovo,Kemerovo,55.3333,86.0667,Russia,RU,Kemerovskaya Oblast’,admin,556920
1292,Herāt,Herat,34.3738,62.1792,Afghanistan,AF,Herāt,admin,556205
1293,Dresden,Dresden,51.05,13.74,Germany,DE,Saxony,admin,554907
1294,Bhāvnagar,Bhavnagar,21.765,72.1369,India,IN,Gujarāt,,554978
1295,Juiz de Fora,Juiz de Fora,-21.75,-43.35,Brazil,BR,Minas Gerais,,555284
1296,Luanzhou,Luanzhou,39.7396,118.6978,China,CN,Hebei,minor,554315
1297,Hamadān,Hamadan,34.8,48.5167,Iran,IR,Hamadān,admin,554406
1298,Novokuznetsk,Novokuznetsk,53.75,87.1167,Russia,RU,Kemerovskaya Oblast’,,552105
1299,Nellore,Nellore,14.4333,79.9667,India,IN,Andhra Pradesh,,547621
1300,Chiclayo,Chiclayo,-6.763,-79.8366,Peru,PE,Lambayeque,admin,552508
1301,Manchester,Manchester,53.4794,-2.2453,United Kingdom,GB,Manchester,,547627
1302,Al Ḩudaydah,Al Hudaydah,14.8022,42.9511,Yemen,YE,Al Ḩudaydah,admin,548433
1303,Amrāvati,Amravati,20.9333,77.75,India,IN,Mahārāshtra,,549370
1304,Cabinda,Cabinda,-5.5667,12.2,Angola,AO,Cabinda,admin,550000
1305,Korla,Korla,41.7646,86.1527,China,CN,Xinjiang,minor,549324
1306,Huanghua,Huanghua,38.371,117.3329,China,CN,Hebei,minor,548507
1307,Muntinlupa City,Muntinlupa City,14.3833,121.05,Philippines,PH,Muntinlupa,admin,543445
1308,Londrina,Londrina,-23.31,-51.1628,Brazil,BR,Paraná,,548249
1309,Tabūk,Tabuk,28.3838,36.555,Saudi Arabia,SA,Tabūk,admin,547957
1310,Heroica Matamoros,Heroica Matamoros,25.8797,-97.5042,Mexico,MX,Tamaulipas,minor,541979
1311,Samarkand,Samarkand,39.6542,66.9597,Uzbekistan,UZ,Samarqand,admin,546303
1312,Xingcheng,Xingcheng,40.6189,120.7205,China,CN,Liaoning,,546176
1313,Kaiyuan,Kaiyuan,42.538,124.0371,China,CN,Liaoning,,545624
1314,Hannover,Hannover,52.3744,9.7386,Germany,DE,Lower Saxony,admin,542668
1315,Valledupar,Valledupar,10.4603,-73.2597,Colombia,CO,Cesar,admin,544134
1316,Fengcheng,Fengcheng,40.4543,124.0646,China,CN,Liaoning,,543933
1317,Ajmer,Ajmer,26.468,74.639,India,IN,Rājasthān,,542321
1318,Ghulja,Ghulja,43.9,81.35,China,CN,Xinjiang,minor,542507
1319,Tinnevelly,Tinnevelly,8.7289,77.7081,India,IN,Tamil Nādu,,542200
1320,City of Calamba,City of Calamba,14.2167,121.1667,Philippines,PH,Laguna,,539671
1321,Xiangyang,Xiangyang,34.2999,108.4816,China,CN,Shaanxi,,541554
1322,Fuding,Fuding,27.2,120.2,China,CN,Fujian,minor,542000
1323,An Nāşirīyah,An Nasiriyah,31.0439,46.2575,Iraq,IQ,Dhī Qār,admin,541600
1324,Al Ḩillah,Al Hillah,32.4833,44.4333,Iraq,IQ,Bābil,admin,541034
1325,Ibagué,Ibague,4.4378,-75.2006,Colombia,CO,Tolima,admin,541101
1326,Ryazan,Ryazan,54.6167,39.7167,Russia,RU,Ryazanskaya Oblast’,admin,537622
1327,Kassala,Kassala,15.45,36.4,Sudan,SD,Kassala,admin,536009
1328,Chang’an,Chang'an,29.4761,113.448,China,CN,Hunan,minor,537500
1329,Kermān,Kerman,30.2833,57.0667,Iran,IR,Kermān,admin,537718
1330,Kōtō-ku,Koto-ku,35.6667,139.8167,Japan,JP,Tōkyō,,523117
1331,Poznań,Poznan,52.4083,16.9336,Poland,PL,Wielkopolskie,admin,533830
1332,Aksu,Aksu,41.1664,80.25,China,CN,Xinjiang,minor,535657
1333,Salta,Salta,-24.7883,-65.4106,Argentina,AR,Salta,admin,535303
1334,Astrakhan,Astrakhan,46.3333,48.0167,Russia,RU,Astrakhanskaya Oblast’,admin,532504
1335,Wuhai,Wuhai,39.6844,106.8158,China,CN,Inner Mongolia,minor,532902
1336,Mingguang,Mingguang,32.7816,117.9899,China,CN,Anhui,,532732
1337,Naberezhnyye Chelny,Naberezhnyye Chelny,55.7,52.3333,Russia,RU,Tatarstan,,529797
1338,Antwerp,Antwerp,51.2211,4.3997,Belgium,BE,Flanders,minor,529247
1339,Touba,Touba,14.8667,-15.8833,Senegal,SN,Diourbel,,529176
1340,Ardabīl,Ardabil,38.25,48.3,Iran,IR,Ardabīl,admin,529374
1341,Bīkaner,Bikaner,28.0181,73.3169,India,IN,Rājasthān,,529007
1342,Lyon,Lyon,45.76,4.84,France,FR,Auvergne-Rhône-Alpes,admin,518635
1343,Agartala,Agartala,23.8333,91.2667,India,IN,Tripura,admin,522613
1344,Ndola,Ndola,-12.9683,28.6337,Zambia,ZM,Copperbelt,admin,528330
1345,Himeji,Himeji,34.8167,134.6833,Japan,JP,Hyōgo,,527596
1346,Tultitlán de Mariano Escobedo,Tultitlan de Mariano Escobedo,19.645,-99.1694,Mexico,MX,México,minor,520557
1347,Villavicencio,Villavicencio,4.1425,-73.6294,Colombia,CO,Meta,admin,527668
1348,Ailan Mubage,Ailan Mubage,43.9167,81.3167,China,CN,Xinjiang,minor,526745
1349,Bandar ‘Abbās,Bandar `Abbas,27.2,56.25,Iran,IR,Hormozgān,admin,526648
1350,Bắc Ninh,Bac Ninh,21.1861,106.0763,Vietnam,VN,Bắc Ninh,admin,520000
1351,Ciudad Apodaca,Ciudad Apodaca,25.7833,-100.1833,Mexico,MX,Nuevo León,minor,523370
1352,Santa Teresa del Tuy,Santa Teresa del Tuy,10.2333,-66.65,Venezuela,VE,Miranda,minor,525321
1353,Maipú,Maipu,-33.5167,-70.7667,Chile,CL,Región Metropolitana,,521627
1354,Penza,Penza,53.2,45.0,Russia,RU,Penzenskaya Oblast’,admin,523726
1355,Soacha,Soacha,4.5781,-74.2144,Colombia,CO,Cundinamarca,minor,522442
1356,Port Said,Port Said,31.25,32.2833,Egypt,EG,Būr Sa‘īd,admin,524433
1357,Yucheng,Yucheng,36.9329,116.6403,China,CN,Shandong,minor,522878
1358,Meknès,Meknes,33.8833,-5.55,Morocco,MA,Fès-Meknès,,520428
1359,Arāk,Arak,34.08,49.7,Iran,IR,Markazī,admin,520944
1360,Pohang,Pohang,36.0322,129.365,South Korea,KR,Gyeongbuk,minor,520305
1361,Longzhou,Longzhou,30.32,112.23,China,CN,Hubei,,520000
1362,Anda,Anda,46.4078,125.3252,China,CN,Heilongjiang,minor,520000
1363,Jinghong,Jinghong,22.0057,100.7948,China,CN,Yunnan,,519935
1364,Sheffield,Sheffield,53.3808,-1.4703,United Kingdom,GB,Sheffield,,518090
1365,Utsunomiya,Utsunomiya,36.55,139.8833,Japan,JP,Tochigi,admin,518197
1366,Suez,Suez,29.9667,32.5333,Egypt,EG,As Suways,admin,516959
1367,Nuremberg,Nuremberg,49.4539,11.0775,Germany,DE,Bavaria,minor,515543
1368,Liverpool,Liverpool,53.4075,-2.9919,United Kingdom,GB,Liverpool,,513441
1369,Mesa,Mesa,33.4017,-111.718,United States,US,Arizona,,518012
1370,Surrey,Surrey,49.19,-122.8489,Canada,CA,British Columbia,,517887
1371,Heshan,Heshan,22.7697,112.9578,China,CN,Guangdong,,516500
1372,Zhoushan,Zhoushan,29.9887,122.2049,China,CN,Zhejiang,minor,516000
1373,Ujjain,Ujjain,23.1828,75.7772,India,IN,Madhya Pradesh,,515215
1374,Jiaji,Jiaji,19.2431,110.4642,China,CN,Hainan,minor,515700
1375,Santa Marta,Santa Marta,11.2361,-74.2017,Colombia,CO,Magdalena,admin,515556
1376,Joinvile,Joinvile,-26.3039,-48.8458,Brazil,BR,Santa Catarina,,515288
1377,Beining,Beining,41.5961,121.7928,China,CN,Liaoning,,514898
1378,Hải Dương,Hai Duong,20.9399,106.3309,Vietnam,VN,Hải Dương,admin,507469
1379,Carrefour,Carrefour,18.5333,-72.4,Haiti,HT,Ouest,,511345
1380,Maturín,Maturin,9.7457,-63.1832,Venezuela,VE,Monagas,admin,514046
1381,Homyel’,Homyel',52.4417,30.9833,Belarus,BY,Homyel’skaya Voblasts’,admin,510300
1382,Ananindeua,Ananindeua,-1.3658,-48.3719,Brazil,BR,Pará,,510834
1383,Yanji,Yanji,42.9044,129.5067,China,CN,Jilin,minor,513072
1384,Yicheng,Yicheng,31.7117,112.2551,China,CN,Hubei,minor,512530
1385,Ulhāsnagar,Ulhasnagar,19.2167,73.15,India,IN,Mahārāshtra,,506098
1386,Lipetsk,Lipetsk,52.6167,39.6,Russia,RU,Lipetskaya Oblast’,admin,510439
1387,Al ‘Amārah,Al `Amarah,31.8333,47.15,Iraq,IQ,Maysān,admin,511500
1388,Choloma,Choloma,15.6333,-88.0,Honduras,HN,Cortés,,510456
1389,Sevastopol,Sevastopol,44.6,33.5333,Ukraine,UA,"Sevastopol’, Misto",admin,509992
1390,Encheng,Encheng,22.1879,112.3131,China,CN,Guangdong,minor,509700
1391,Aden,Aden,12.8,45.0333,Yemen,YE,‘Adan,admin,507355
1392,Kitwe,Kitwe,-12.8208,28.2119,Zambia,ZM,Copperbelt,,504194
1393,Matsuyama,Matsuyama,33.8333,132.7667,Japan,JP,Ehime,admin,506743
1394,Jhānsi,Jhansi,25.4486,78.5696,India,IN,Uttar Pradesh,,507000
1395,Kashgar,Kashgar,39.45,75.9833,China,CN,Xinjiang,minor,506640
1396,Palm Bay,Palm Bay,27.955,-80.6627,United States,US,Florida,,507002
1397,Pingtung,Pingtung,22.6761,120.4942,Taiwan,TW,Pingtung,admin,503530
1398,Lapu-Lapu City,Lapu-Lapu City,10.3127,123.9488,Philippines,PH,Lapu-Lapu,admin,497604
1399,Montería,Monteria,8.76,-75.8856,Colombia,CO,Córdoba,admin,505334
1400,Ichikawa,Ichikawa,35.7219,139.9311,Japan,JP,Chiba,,496657
1401,Imus,Imus,14.4297,120.9367,Philippines,PH,Cavite,,496794
1402,Davangere,Davangere,14.4667,75.9167,India,IN,Karnātaka,,503564
1403,Jammu,Jammu,32.7333,74.85,India,IN,Jammu and Kashmīr,,502197
1404,Yiwu,Yiwu,29.3081,120.0698,China,CN,Zhejiang,minor,502000
1405,Belas,Belas,-9.0689,13.1608,Angola,AO,Luanda,,500000
1406,Talatona,Talatona,-8.9167,13.1833,Angola,AO,Luanda,,500000
1407,Ile-Ife,Ile-Ife,7.4667,4.5667,Nigeria,NG,Osun,minor,501952
1408,Kirov,Kirov,58.6,49.65,Russia,RU,Kirovskaya Oblast’,admin,501468
1409,Jiaxing,Jiaxing,30.7522,120.75,China,CN,Zhejiang,minor,500100
1410,Mykolaiv,Mykolaiv,46.9667,32.0,Ukraine,UA,Mykolayivs’ka Oblast’,admin,498748
1411,Provo,Provo,40.2457,-111.6457,United States,US,Utah,,500617
1412,Meicheng,Meicheng,30.6412,116.5689,China,CN,Anhui,minor,500292
1413,Niterói,Niteroi,-22.8833,-43.1036,Brazil,BR,Rio de Janeiro,,496696
1414,Matsudo,Matsudo,35.7878,139.9031,Japan,JP,Chiba,,492367
1415,Sukkur,Sukkur,27.6995,68.8673,Pakistan,PK,Sindh,minor,499900
